header: 
  seq: 0
  stamp: 
    secs: 1509918144
    nsecs: 215432882
  frame_id: amiro1/odom
child_frame_id: amiro1/base_link
pose: 
  pose: 
    position: 
      x: -0.011781224981
      y: -0.0343854874372
      z: 0.0
    orientation: 
      x: 0.0
      y: 0.0
      z: 0.0323608111694
      w: 0.999476251794
  covariance: [0.1, 0.0, 0.0, 0.0, 0.0, 0.0, 0.0, 0.1, 0.0, 0.0, 0.0, 0.0, 0.0, 0.0, 1e-06, 0.0, 0.0, 0.0, 0.0, 0.0, 0.0, 1e-06, 0.0, 0.0, 0.0, 0.0, 0.0, 0.0, 1e-06, 0.0, 0.0, 0.0, 0.0, 0.0, 0.0, 0.01]
twist: 
  twist: 
    linear: 
      x: 0.0
      y: 0.0
      z: 0.0
    angular: 
      x: 0.0
      y: 0.0
      z: 0.0
  covariance: [1e-09, 0.0, 0.0, 0.0, 0.0, 0.0, 0.0, 1e-09, 0.0, 0.0, 0.0, 0.0, 0.0, 0.0, 1e-06, 0.0, 0.0, 0.0, 0.0, 0.0, 0.0, 1e-06, 0.0, 0.0, 0.0, 0.0, 0.0, 0.0, 1e-06, 0.0, 0.0, 0.0, 0.0, 0.0, 0.0, 1e-09]
---
header: 
  seq: 1
  stamp: 
    secs: 1509918144
    nsecs: 283269644
  frame_id: amiro1/odom
child_frame_id: amiro1/base_link
pose: 
  pose: 
    position: 
      x: -0.0112760738207
      y: -0.033927225417
      z: 0.0
    orientation: 
      x: 0.0
      y: 0.0
      z: 0.0309100267637
      w: 0.999522170962
  covariance: [0.050833818630674654, -1.1918275183665454e-32, 0.0, 0.0, 0.0, 0.0, 1.1918275183665454e-32, 0.050833818630674654, 0.0, 0.0, 0.0, 0.0, 0.0, 0.0, 9.997544331142473e-07, 0.0, 0.0, 0.0, 0.0, 0.0, 0.0, 9.995091078748682e-07, 5.8774717541114375e-37, 0.0, 0.0, 0.0, 0.0, -5.8774717541114375e-37, 9.995091078748682e-07, 0.0, 0.0, 0.0, 0.0, 0.0, 0.0, 0.005845486271488077]
twist: 
  twist: 
    linear: 
      x: 3.50997763268e-13
      y: 2.7924324509e-13
      z: 0.0
    angular: 
      x: 0.0
      y: 0.0
      z: -1.3996356713e-11
  covariance: [0.0016959200414670608, 1.88079096131566e-37, 0.0, 0.0, 0.0, 0.0, -1.88079096131566e-37, 0.0016959200414670608, 0.0, 0.0, 0.0, 0.0, 0.0, 0.0, 9.996317403107426e-07, 0.0, 0.0, 0.0, 0.0, 0.0, 0.0, 9.985302063448546e-07, -1.3463865042034686e-35, 0.0, 0.0, 0.0, 0.0, 1.3463865042034686e-35, 9.985302063448546e-07, 0.0, 0.0, 0.0, 0.0, 0.0, 0.0, 0.0013567362294921873]
---
header: 
  seq: 2
  stamp: 
    secs: 1509918144
    nsecs: 314405680
  frame_id: amiro1/odom
child_frame_id: amiro1/base_link
pose: 
  pose: 
    position: 
      x: -0.0114499548236
      y: -0.0340849827919
      z: 0.0
    orientation: 
      x: 0.0
      y: 0.0
      z: 0.0315418595026
      w: 0.999502431762
  covariance: [0.034379871448680294, 1.0678566393457886e-24, 0.0, 0.0, 0.0, -2.0263129737359737e-17, -1.0678564780492521e-24, 0.034379871448680294, 0.0, 0.0, 0.0, 2.2467163908663718e-17, 0.0, 0.0, 9.9946528721552e-07, 4.966705085283146e-27, -6.242952717433214e-27, 0.0, 0.0, 0.0, 4.9667050852831466e-27, 9.989317170087808e-07, -1.3485271192633282e-33, 0.0, 0.0, 0.0, -6.242952717433211e-27, 1.3485271192633282e-33, 9.989317170087808e-07, 0.0, -2.0263129737359743e-17, 2.2467163908663715e-17, 0.0, 0.0, 0.0, 0.00435505476723745]
twist: 
  twist: 
    linear: 
      x: -1.8477350474e-07
      y: -1.47893810652e-07
      z: 0.0
    angular: 
      x: 0.0
      y: 0.0
      z: 6.92258391215e-06
  covariance: [0.0024749602860880617, -1.0339757656894047e-25, 0.0, 0.0, 0.0, -4.2024592179874595e-23, 1.0339757656894047e-25, 0.0024749602860880617, 0.0, 0.0, 0.0, 5.28232577597871e-23, 0.0, 0.0, 9.991983595450532e-07, 1.1305580450913421e-35, -1.6168642880571808e-35, 0.0, 0.0, 0.0, 1.1305580450913428e-35, 9.968087709105185e-07, 3.676091108571212e-35, 0.0, 0.0, 0.0, -1.6168642880571819e-35, -3.676091108571212e-35, 9.968087709105185e-07, 0.0, -4.2024592179874595e-23, 5.28232577597871e-23, 0.0, 0.0, 0.0, 0.0019793562134778242]
---
header: 
  seq: 3
  stamp: 
    secs: 1509918144
    nsecs: 375329494
  frame_id: amiro1/odom
child_frame_id: amiro1/base_link
pose: 
  pose: 
    position: 
      x: -0.0112694375231
      y: -0.0339212436011
      z: 0.0
    orientation: 
      x: 0.0
      y: 0.0
      z: 0.0308018232618
      w: 0.999525511272
  covariance: [0.027240702796729625, -1.8089726423476224e-19, 0.0, 0.0, 0.0, 1.7068798279485992e-11, -1.8099439646363642e-19, 0.027240702796729625, 0.0, 0.0, 0.0, -1.8765588803554033e-11, 0.0, 0.0, 9.997265841216039e-07, -1.34522468605096e-21, 1.6806794906054542e-21, 0.0, 0.0, 0.0, -1.3452246860509596e-21, 9.99453467414695e-07, 5.7277372837036946e-33, 0.0, 0.0, 0.0, 1.6806794906054544e-21, 1.0810386777563134e-32, 9.99453467414695e-07, 0.0, 1.7068798279485992e-11, -1.876558880355403e-11, 0.0, 0.0, 0.0, 0.004450837096275952]
twist: 
  twist: 
    linear: 
      x: 7.59743614336e-07
      y: 6.06327315297e-07
      z: 0.0
    angular: 
      x: 0.0
      y: 0.0
      z: -1.97508742206e-05
  covariance: [0.0040040520057906094, -5.066579716439552e-24, 0.0, 0.0, 0.0, 1.3483516634515242e-16, 5.066579643037806e-24, 0.0040040520057906094, 0.0, 0.0, 0.0, -1.6837698536861645e-16, 0.0, 0.0, 9.995899884172144e-07, -3.0623722850128014e-30, 4.3639981503429094e-30, 0.0, 0.0, 0.0, -3.062372285012801e-30, 9.983639679101256e-07, 3.282493379114712e-35, 0.0, 0.0, 0.0, 4.363998150342909e-30, -3.282493379115807e-35, 9.983639679101256e-07, 0.0, 1.3483516634515262e-16, -1.6837698536861645e-16, 0.0, 0.0, 0.0, 0.0031966748542702613]
---
header: 
  seq: 4
  stamp: 
    secs: 1509918144
    nsecs: 402743101
  frame_id: amiro1/odom
child_frame_id: amiro1/base_link
pose: 
  pose: 
    position: 
      x: -0.0113834449735
      y: -0.0340246706986
      z: 0.0
    orientation: 
      x: 0.0
      y: 0.0
      z: 0.0313924840236
      w: 0.999507134515
  covariance: [0.022252683822461043, -4.908445204977933e-19, 0.0, 0.0, 0.0, -3.01979911963152e-11, -4.908817237217292e-19, 0.022252683822461043, 0.0, 0.0, 0.0, 3.3447549903304634e-11, 0.0, 0.0, 9.993927679424112e-07, 1.223974904384856e-20, -1.5336700939709447e-20, 0.0, 0.0, 0.0, 1.2239749043848556e-20, 9.98787008963442e-07, 3.052461664113593e-31, 0.0, 0.0, 0.0, -1.533670093970945e-20, 3.130260582228415e-31, 9.98787008963442e-07, 0.0, -3.019799119631521e-11, 3.344754990330465e-11, 0.0, 0.0, 0.0, 0.0037897649937207447]
twist: 
  twist: 
    linear: 
      x: -2.69298815701e-07
      y: -2.1646083544e-07
      z: 0.0
    angular: 
      x: 0.0
      y: 0.0
      z: 1.27592865757e-05
  covariance: [0.004694590734614312, -1.84906441947993e-23, 0.0, 0.0, 0.0, 1.9633079469073244e-15, 4.882945907247616e-24, 0.004694590734614312, 0.0, 0.0, 0.0, -2.457497716576645e-15, 0.0, 0.0, 9.990897046908962e-07, 2.7833390876120397e-29, -3.965843800875167e-29, 0.0, 0.0, 0.0, 2.783339087612041e-29, 9.96378575457523e-07, -1.8379397693879014e-36, 0.0, 0.0, 0.0, -3.9658438008751657e-29, 1.8379397693851645e-36, 9.96378575457523e-07, 0.0, 1.9633079469073248e-15, -2.457497716576644e-15, 0.0, 0.0, 0.0, 0.0037431987493251047]
---
header: 
  seq: 5
  stamp: 
    secs: 1509918144
    nsecs: 477095604
  frame_id: amiro1/odom
child_frame_id: amiro1/base_link
pose: 
  pose: 
    position: 
      x: -0.0111998021439
      y: -0.0338509963172
      z: 0.0
    orientation: 
      x: 0.0
      y: 0.0
      z: 0.0318275831119
      w: 0.999493374142
  covariance: [0.020652688543364633, -2.7573072835138495e-19, 0.0, 0.0, 0.0, -9.99695917925198e-12, -2.754117518258919e-19, 0.020652688543364633, 0.0, 0.0, 0.0, 1.0040881246083904e-11, 0.0, 0.0, 9.901261161445332e-07, 9.853840924760763e-19, -1.1790493760160272e-18, 0.0, 0.0, 0.0, 9.853840924760757e-19, 9.80634526272891e-07, 1.1767547248339917e-28, 0.0, 0.0, 0.0, -1.1790493760160274e-18, 1.1765571396719252e-28, 9.80634526272891e-07, 0.0, -9.996959179251982e-12, 1.0040881246083909e-11, 0.0, 0.0, 0.0, 0.004592520492870554]
twist: 
  twist: 
    linear: 
      x: 5.66622402076e-13
      y: 4.7355165045e-13
      z: 0.0
    angular: 
      x: 0.0
      y: 0.0
      z: 1.01166876119e-11
  covariance: [9.99999848027207e-10, -7.401357670926774e-37, 0.0, 0.0, 0.0, -1.8204590095459718e-29, 1.0609075697847237e-37, 9.99999848027207e-10, 0.0, 0.0, 0.0, 2.292695222132899e-29, 0.0, 0.0, 9.853339438644724e-07, 1.9606479813783695e-27, -2.6750601384319817e-27, 0.0, 0.0, 0.0, 1.960647981378369e-27, 9.460767536794654e-07, -1.1482235359449505e-33, 0.0, 0.0, 0.0, -2.6750601384319817e-27, 1.1482235359449532e-33, 9.460767536794654e-07, 0.0, -1.8204590095459726e-29, 2.2926952221329103e-29, 0.0, 0.0, 0.0, 9.99999808519465e-10]
---
header: 
  seq: 6
  stamp: 
    secs: 1509918144
    nsecs: 538280964
  frame_id: amiro1/odom
child_frame_id: amiro1/base_link
pose: 
  pose: 
    position: 
      x: -0.0110639788757
      y: -0.0337225485111
      z: 0.0
    orientation: 
      x: 0.0
      y: 0.0
      z: 0.0320688507881
      w: 0.999485662133
  covariance: [0.019167068765791342, -1.7622158828131639e-19, 0.0, 0.0, 0.0, -4.3532359802953e-12, -1.7601257843384773e-19, 0.019167068765791342, 0.0, 0.0, 0.0, 4.369371591800439e-12, 0.0, 0.0, 9.99727751544051e-07, -4.601673313797819e-24, 5.47229760736306e-24, 0.0, 0.0, 0.0, -4.6016733137978175e-24, 9.994557956314056e-07, 3.956949083737984e-34, 0.0, 0.0, 0.0, 5.47229760736306e-24, -3.2582352416092165e-34, 9.994557956314056e-07, 0.0, -4.3532359802953e-12, 4.369371591800441e-12, 0.0, 0.0, 0.0, 0.004524640843365653]
twist: 
  twist: 
    linear: 
      x: -4.5891189298e-10
      y: -3.95369136015e-10
      z: 0.0
    angular: 
      x: 0.0
      y: 0.0
      z: 1.61021175233e-11
  covariance: [0.0015393905836046944, -9.650547958387572e-29, 0.0, 0.0, 0.0, -1.081014625460802e-26, 1.1224943722536087e-28, 0.0015393905836046944, 0.0, 0.0, 0.0, 1.2386114012466845e-26, 0.0, 0.0, 9.995917373071538e-07, -6.651258339132409e-33, 8.994274168591495e-33, 0.0, 0.0, 0.0, -6.651258339132408e-33, 9.983708039583927e-07, -1.2743618402169187e-35, 0.0, 0.0, 0.0, 8.994274168591495e-33, 1.2743618402169198e-35, 9.98370803958393e-07, 0.0, -1.0810146254608342e-26, 1.2386114012465582e-26, 0.0, 0.0, 0.0, 0.0012237081990964876]
---
header: 
  seq: 7
  stamp: 
    secs: 1509918144
    nsecs: 574994326
  frame_id: amiro1/odom
child_frame_id: amiro1/base_link
pose: 
  pose: 
    position: 
      x: -0.0111884404483
      y: -0.0338376052263
      z: 0.0
    orientation: 
      x: 0.0
      y: 0.0
      z: 0.0321862889484
      w: 0.999481887181
  covariance: [0.01735867169818604, -1.1946031174264431e-19, 0.0, 0.0, 0.0, -2.1052293737407116e-12, -1.1935961290363575e-19, 0.01735867169818604, 0.0, 0.0, 0.0, 2.112276122507945e-12, 0.0, 0.0, 9.995464446935947e-07, -7.757453408104669e-24, 9.004405906277452e-24, 0.0, 0.0, 0.0, -7.757453408104666e-24, 9.990937117051027e-07, -1.5995092690960965e-32, 0.0, 0.0, 0.0, 9.004405906277451e-24, -1.5622413961976267e-32, 9.990937117051027e-07, 0.0, -2.1052293737407116e-12, 2.112276122507946e-12, 0.0, 0.0, 0.0, 0.0040223892436398335]
twist: 
  twist: 
    linear: 
      x: -3.58374190325e-07
      y: -2.91027347969e-07
      z: 0.0
    angular: 
      x: 0.0
      y: 0.0
      z: 1.56896785125e-06
  covariance: [0.002473242192916117, -2.0703995605831113e-25, 0.0, 0.0, 0.0, -5.0613900652805435e-18, 2.070815371025751e-25, 0.002473242192916117, 0.0, 0.0, 0.0, 5.77339422488782e-18, 0.0, 0.0, 9.993199755702578e-07, -1.7737758108054337e-32, 2.3479078925918713e-32, 0.0, 0.0, 0.0, -1.7737758108054342e-32, 9.972909418981514e-07, 7.970673244153527e-35, 0.0, 0.0, 0.0, 2.347907892591872e-32, 1.3692956711313872e-34, 9.972909418981514e-07, 0.0, -5.0613900652805435e-18, 5.773394224887826e-18, 0.0, 0.0, 0.0, 0.0019578547823883657]
---
header: 
  seq: 8
  stamp: 
    secs: 1509918144
    nsecs: 630203009
  frame_id: amiro1/odom
child_frame_id: amiro1/base_link
pose: 
  pose: 
    position: 
      x: -0.0112877265651
      y: -0.0339293706062
      z: 0.0
    orientation: 
      x: 0.0
      y: 0.0
      z: 0.0322601349065
      w: 0.999479506391
  covariance: [0.01674952006969163, -2.437935157165125e-19, 0.0, 0.0, 0.0, 1.6123917077911816e-11, -2.437624438841562e-19, 0.01674952006969163, 0.0, 0.0, 0.0, -1.750958868157764e-11, 0.0, 0.0, 9.993840844980283e-07, -5.9756765061617795e-24, 7.24183636026508e-24, 0.0, 0.0, 0.0, -5.9756765061617795e-24, 9.98769683743522e-07, 2.3760032214300733e-33, 0.0, 0.0, 0.0, 7.241836360265082e-24, -2.37562706323781e-33, 9.98769683743522e-07, 0.0, 1.6123917077911816e-11, -1.7509588681577632e-11, 0.0, 0.0, 0.0, 0.0042314271211083285]
twist: 
  twist: 
    linear: 
      x: -1.38700661935e-09
      y: -1.1349171778e-09
      z: 0.0
    angular: 
      x: 0.0
      y: 0.0
      z: 1.82211006752e-12
  covariance: [0.0006784589799075708, -9.746707087937895e-30, 0.0, 0.0, 0.0, 2.3706424810313675e-27, 1.053046983688203e-29, 0.0006784589799075708, 0.0, 0.0, 0.0, -5.983112239621402e-27, 0.0, 0.0, 9.990766952103256e-07, -1.3602675158952186e-32, 1.883544613968587e-32, 0.0, 0.0, 0.0, -1.3602675158952183e-32, 9.96327080916779e-07, -4.7224483604361013e-35, 0.0, 0.0, 0.0, 1.8835446139685872e-32, 4.722448364064698e-35, 9.96327080916779e-07, 0.0, 2.3706424810313904e-27, -5.983112239621528e-27, 0.0, 0.0, 0.0, 0.0005405340657955016]
---
header: 
  seq: 9
  stamp: 
    secs: 1509918144
    nsecs: 662734032
  frame_id: amiro1/odom
child_frame_id: amiro1/base_link
pose: 
  pose: 
    position: 
      x: -0.0115083063068
      y: -0.0343179448447
      z: 0.0
    orientation: 
      x: 0.0
      y: 0.0
      z: 0.0320041723979
      w: 0.999487735267
  covariance: [0.01552399152571076, -1.626989032713171e-19, 0.0, 0.0, 0.0, 8.556939114139678e-12, -1.6268949548780978e-19, 0.01552399152571076, 0.0, 0.0, 0.0, -9.290462017072426e-12, 0.0, 0.0, 9.994881930807241e-07, -3.090939142827464e-23, 3.777499331926671e-23, 0.0, 0.0, 0.0, -3.0909391428274636e-23, 9.989774324575115e-07, -3.2881868376681684e-33, 0.0, 0.0, 0.0, 3.7774993319266717e-23, 3.292794775523392e-33, 9.989774324575115e-07, 0.0, 8.556939114139676e-12, -9.290462017072424e-12, 0.0, 0.0, 0.0, 0.003821004587446477]
twist: 
  twist: 
    linear: 
      x: -3.03834850601e-07
      y: -4.60750552143e-07
      z: 0.0
    angular: 
      x: 0.0
      y: 0.0
      z: -1.4564382606e-06
  covariance: [0.0015027812358686604, -1.0343036356642243e-25, 0.0, 0.0, 0.0, 3.1903336082818386e-18, 5.17575881261093e-26, 0.0015027812358686604, 0.0, 0.0, 0.0, -3.947492406408122e-18, 0.0, 0.0, 9.99232682242887e-07, -6.993667779058685e-32, 9.770691552690157e-32, 0.0, 0.0, 0.0, -6.993667779058686e-32, 9.969447602534423e-07, -1.091858805975392e-35, 0.0, 0.0, 0.0, 9.770691552690157e-32, 1.0918588059748446e-35, 9.969447602534423e-07, 0.0, 3.1903336082818394e-18, -3.9474924064081214e-18, 0.0, 0.0, 0.0, 0.0011911354206850815]
---
header: 
  seq: 10
  stamp: 
    secs: 1509918144
    nsecs: 729324102
  frame_id: amiro1/odom
child_frame_id: amiro1/base_link
pose: 
  pose: 
    position: 
      x: -0.0115516714897
      y: -0.0343287293065
      z: 0.0
    orientation: 
      x: 0.0
      y: 0.0
      z: 0.0321606621629
      w: 0.999482712111
  covariance: [0.01586591970054406, -1.5672266052265706e-18, 0.0, 0.0, 0.0, 6.08605929108004e-11, -1.567222377108715e-18, 0.01586591970054406, 0.0, 0.0, 0.0, -3.692473292802536e-11, 0.0, 0.0, 9.916048024894254e-07, -4.213150672263899e-23, 3.3799677957986094e-23, 0.0, 0.0, 0.0, -4.213150672263898e-23, 9.834867621421995e-07, 9.220389608753892e-33, 0.0, 0.0, 0.0, 3.3799677957986094e-23, -9.196315484449051e-33, 9.834867621421995e-07, 0.0, 6.08605929108004e-11, -3.692473292802536e-11, 0.0, 0.0, 0.0, 0.004388227733935557]
twist: 
  twist: 
    linear: 
      x: -3.06374033309e-10
      y: -3.18024832557e-10
      z: 0.0
    angular: 
      x: 0.0
      y: 0.0
      z: 9.08456384944e-13
  covariance: [4.88182890169221e-05, -4.153309954218848e-31, 0.0, 0.0, 0.0, 3.292533619799943e-26, -4.749108931371942e-31, 4.88182890169221e-05, 0.0, 0.0, 0.0, -2.723196071139783e-26, 0.0, 0.0, 9.875120093053688e-07, -9.881057276855167e-32, 8.85395625955012e-32, 0.0, 0.0, 0.0, -9.88105727685516e-32, 9.535268188130275e-07, 1.2139578310566737e-34, 0.0, 0.0, 0.0, 8.853956259550118e-32, -1.2139578310566733e-34, 9.535268188130275e-07, 0.0, 3.2925336197999405e-26, -2.7231960711397813e-26, 0.0, 0.0, 0.0, 3.903965814168717e-05]
---
header: 
  seq: 11
  stamp: 
    secs: 1509918144
    nsecs: 788227320
  frame_id: amiro1/odom
child_frame_id: amiro1/base_link
pose: 
  pose: 
    position: 
      x: -0.0116316364993
      y: -0.0343824599745
      z: 0.0
    orientation: 
      x: 0.0
      y: 0.0
      z: 0.0311520356601
      w: 0.999514657558
  covariance: [0.01583292688981356, -1.0367165264477417e-18, 0.0, 0.0, 0.0, 2.923898992174864e-11, -1.0367168194390934e-18, 0.01583292688981356, 0.0, 0.0, 0.0, -1.789724401509604e-11, 0.0, 0.0, 9.997172096110894e-07, -4.735708022656702e-23, 4.561787007441402e-23, 0.0, 0.0, 0.0, -4.7357080226567e-23, 9.994347354956788e-07, 9.831881770051646e-33, 0.0, 0.0, 0.0, 4.561787007441401e-23, -9.81683544236112e-33, 9.994347354956788e-07, 0.0, 2.9238989921748636e-11, -1.7897244015096043e-11, 0.0, 0.0, 0.0, 0.004420438762533138]
twist: 
  twist: 
    linear: 
      x: -2.77023709468e-08
      y: -2.04828129674e-08
      z: 0.0
    angular: 
      x: 0.0
      y: 0.0
      z: -5.85815801786e-07
  covariance: [0.001539881957243875, -6.813088660961796e-27, 0.0, 0.0, 0.0, 3.2742111301284315e-19, -5.306023495731266e-27, 0.001539881957243875, 0.0, 0.0, 0.0, -2.322560226545279e-19, 0.0, 0.0, 9.995759332913014e-07, -9.910582188667185e-32, 1.085925976950101e-31, 0.0, 0.0, 0.0, -9.91058218866719e-32, 9.983079116752594e-07, 4.10902756622688e-35, 0.0, 0.0, 0.0, 1.0859259769501005e-31, -4.10902756622688e-35, 9.983079116752592e-07, 0.0, 3.274211130128431e-19, -2.322560226545281e-19, 0.0, 0.0, 0.0, 0.0012171037094035426]
---
header: 
  seq: 12
  stamp: 
    secs: 1509918144
    nsecs: 820093632
  frame_id: amiro1/odom
child_frame_id: amiro1/base_link
pose: 
  pose: 
    position: 
      x: -0.0116538926306
      y: -0.0343829636284
      z: 0.0
    orientation: 
      x: 0.0
      y: 0.0
      z: 0.0316207625323
      w: 0.999499938658
  covariance: [0.014841474475102362, -7.530395778421234e-19, 0.0, 0.0, 0.0, 1.7141012828128756e-11, -7.530603483155417e-19, 0.014841474475102362, 0.0, 0.0, 0.0, -1.1539660666197467e-11, 0.0, 0.0, 9.9947752835159e-07, -4.1523837627641425e-22, 5.493058557409819e-22, 0.0, 0.0, 0.0, -4.1523837627641425e-22, 9.989561475564794e-07, 2.669970848683711e-32, 0.0, 0.0, 0.0, 5.493058557409822e-22, 2.153317571610299e-33, 9.989561475564794e-07, 0.0, 1.714101282812875e-11, -1.1539660666197466e-11, 0.0, 0.0, 0.0, 0.003877701646325761]
twist: 
  twist: 
    linear: 
      x: -1.0397900028e-07
      y: -2.45994200795e-08
      z: 0.0
    angular: 
      x: 0.0
      y: 0.0
      z: 5.3476265939e-06
  covariance: [0.0023615675205953786, -6.289114060511599e-25, 0.0, 0.0, 0.0, 4.239479338474232e-17, -7.356665995588924e-27, 0.0023615675205953786, 0.0, 0.0, 0.0, -3.1849912173266995e-17, 0.0, 0.0, 9.99216701839735e-07, -9.401226311503609e-31, 1.4194719157297247e-30, 0.0, 0.0, 0.0, -9.401226311503612e-31, 9.968814459257986e-07, 1.0401780137890068e-34, 0.0, 0.0, 0.0, 1.4194719157297247e-30, -2.069884695539256e-35, 9.968814459257986e-07, 0.0, 4.23947933847423e-17, -3.1849912173267e-17, 0.0, 0.0, 0.0, 0.0018543316614392765]
---
header: 
  seq: 13
  stamp: 
    secs: 1509918144
    nsecs: 886385918
  frame_id: amiro1/odom
child_frame_id: amiro1/base_link
pose: 
  pose: 
    position: 
      x: -0.0116735149252
      y: -0.0343834067884
      z: 0.0
    orientation: 
      x: 0.0
      y: 0.0
      z: 0.0319463551942
      w: 0.999489584933
  covariance: [0.015366701163608333, -5.832830294860227e-19, 0.0, 0.0, 0.0, 1.0547552647268432e-11, -5.833240289281658e-19, 0.015366701163608333, 0.0, 0.0, 0.0, -1.218660277664662e-11, 0.0, 0.0, 9.995103584994403e-07, -5.719197923704996e-23, 7.196391278968532e-23, 0.0, 0.0, 0.0, -5.719197923704997e-23, 9.990216748639899e-07, -1.0006466191035772e-32, 0.0, 0.0, 0.0, 7.19639127896853e-23, 1.0023299270139547e-32, 9.990216748639899e-07, 0.0, 1.054755264726843e-11, -1.218660277664662e-11, 0.0, 0.0, 0.0, 0.004399612265487558]
twist: 
  twist: 
    linear: 
      x: -9.6293729771e-09
      y: -6.99679042962e-09
      z: 0.0
    angular: 
      x: 0.0
      y: 0.0
      z: 7.75899755163e-12
  covariance: [0.0008571685357053459, -8.694331784916741e-28, 0.0, 0.0, 0.0, 2.2504829583618063e-24, -8.43543729781695e-28, 0.0008571685357053459, 0.0, 0.0, 0.0, -1.7493560762948864e-24, 0.0, 0.0, 9.99265897170423e-07, -1.2954059654191621e-31, 1.8604411143702885e-31, 0.0, 0.0, 0.0, -1.2954059654191628e-31, 9.970764386033897e-07, -6.622600139789075e-35, 0.0, 0.0, 0.0, 1.8604411143702898e-31, 6.622600140463998e-35, 9.970764386033897e-07, 0.0, 2.2504829583618056e-24, -1.7493560762948864e-24, 0.0, 0.0, 0.0, 0.000680104302001553]
---
header: 
  seq: 14
  stamp: 
    secs: 1509918144
    nsecs: 915239811
  frame_id: amiro1/odom
child_frame_id: amiro1/base_link
pose: 
  pose: 
    position: 
      x: -0.0116890865812
      y: -0.0343837756405
      z: 0.0
    orientation: 
      x: 0.0
      y: 0.0
      z: 0.0321038870249
      w: 0.999484537368
  covariance: [0.014391012912808374, -4.260565787871449e-19, 0.0, 0.0, 0.0, 6.326543204376799e-12, -4.2609295272449255e-19, 0.014391012912808374, 0.0, 0.0, 0.0, -7.346590346636445e-12, 0.0, 0.0, 9.994230438385965e-07, -1.9102122239027227e-22, 2.6289319788670445e-22, 0.0, 0.0, 0.0, -1.910212223902723e-22, 9.988474172284967e-07, 6.111630228795237e-34, 0.0, 0.0, 0.0, 2.6289319788670454e-22, -4.371898589578252e-34, 9.988474172284967e-07, 0.0, 6.326543204376796e-12, -7.346590346636446e-12, 0.0, 0.0, 0.0, 0.0038009146698935485]
twist: 
  twist: 
    linear: 
      x: -4.20607566408e-08
      y: -1.19569584459e-08
      z: 0.0
    angular: 
      x: 0.0
      y: 0.0
      z: 1.00889218009e-06
  covariance: [0.0015958049629322328, -2.0961185692736776e-25, 0.0, 0.0, 0.0, 3.5462504568656955e-18, 1.0040711452810499e-25, 0.0015958049629322328, 0.0, 0.0, 0.0, -4.4677366261589705e-18, 0.0, 0.0, 9.991350646877976e-07, -4.2822031554691665e-31, 6.763036098465055e-31, 0.0, 0.0, 0.0, -4.282203155469171e-31, 9.965580858431173e-07, 6.789624090276194e-37, 0.0, 0.0, 0.0, 6.763036098465059e-31, -6.789624090330932e-37, 9.965580858431173e-07, 0.0, 3.5462504568656955e-18, -4.467736626158973e-18, 0.0, 0.0, 0.0, 0.0012571582955815406]
---
header: 
  seq: 15
  stamp: 
    secs: 1509918144
    nsecs: 977008104
  frame_id: amiro1/odom
child_frame_id: amiro1/base_link
pose: 
  pose: 
    position: 
      x: -0.011512377154
      y: -0.034206328074
      z: 0.0
    orientation: 
      x: 0.0
      y: 0.0
      z: 0.0322121774384
      w: 0.999481053159
  covariance: [0.01493284821864069, -3.4864206310510927e-19, 0.0, 0.0, 0.0, -1.3443993558490871e-11, -3.487258175024021e-19, 0.01493284821864069, 0.0, 0.0, 0.0, 9.252187535012162e-12, 0.0, 0.0, 9.95592586366402e-07, 1.6115394602600708e-19, -1.7774255207631047e-19, 0.0, 0.0, 0.0, 1.611539460260071e-19, 9.912621626323312e-07, 6.471171241762331e-30, 0.0, 0.0, 0.0, -1.7774255207631045e-19, 6.497629554876569e-30, 9.912621626323312e-07, 0.0, -1.3443993558490872e-11, 9.252187535012164e-12, 0.0, 0.0, 0.0, 0.0044394927191990854]
twist: 
  twist: 
    linear: 
      x: 3.83523407294e-13
      y: 3.47764287452e-13
      z: 0.0
    angular: 
      x: 0.0
      y: 0.0
      z: 1.42029490687e-12
  covariance: [9.999996888610986e-10, -2.553159778226024e-38, 0.0, 0.0, 0.0, 7.835317447263256e-30, 7.009241467841368e-39, 9.999996888610986e-10, 0.0, 0.0, 0.0, -1.1494187701481883e-29, 0.0, 0.0, 9.934178794648405e-07, 3.485164459373518e-28, -4.380544890365621e-28, 0.0, 0.0, 0.0, 3.4851644593735186e-28, 9.746707623808878e-07, -9.45838003003052e-34, 0.0, 0.0, 0.0, -4.38054489036562e-28, 4.6640765719171367e-35, 9.746707623808878e-07, 0.0, 7.835317447263252e-30, -1.1494187701481887e-29, 0.0, 0.0, 0.0, 9.999995987329915e-10]
---
header: 
  seq: 16
  stamp: 
    secs: 1509918145
    nsecs:  26897907
  frame_id: amiro1/odom
child_frame_id: amiro1/base_link
pose: 
  pose: 
    position: 
      x: -0.0114047972852
      y: -0.0340991268242
      z: 0.0
    orientation: 
      x: 0.0
      y: 0.0
      z: 0.0312173483122
      w: 0.999512619812
  covariance: [0.01484100446427597, -2.47993774419996e-19, 0.0, 0.0, 0.0, -6.727924754748317e-12, -2.4805627398929227e-19, 0.01484100446427597, 0.0, 0.0, 0.0, 4.508721829253223e-12, 0.0, 0.0, 9.996661532372157e-07, 1.642377614485621e-23, 1.9375200808539497e-26, 0.0, 0.0, 0.0, 1.642377614485621e-23, 9.993327496099942e-07, -1.0695776078357961e-32, 0.0, 0.0, 0.0, 1.9375200808539512e-26, 1.0701371431467875e-32, 9.993327496099942e-07, 0.0, -6.727924754748317e-12, 4.508721829253224e-12, 0.0, 0.0, 0.0, 0.004263713463442572]
twist: 
  twist: 
    linear: 
      x: 1.0412435399e-08
      y: 1.21082777775e-08
      z: 0.0
    angular: 
      x: 0.0
      y: 0.0
      z: -1.82051587298e-11
  covariance: [0.001264990526337352, -5.943542410657997e-27, 0.0, 0.0, 0.0, 2.501273278795972e-24, -4.754490980822441e-27, 0.001264990526337352, 0.0, 0.0, 0.0, -3.2515588845574967e-24, 0.0, 0.0, 9.99499396266252e-07, 3.921606360200067e-32, -3.3241870341806855e-33, 0.0, 0.0, 0.0, 3.9216063602000677e-32, 9.980034847118424e-07, -7.516590574790371e-35, 0.0, 0.0, 0.0, -3.324187034180687e-33, 7.516232148746353e-35, 9.980034847118422e-07, 0.0, 2.50127327879597e-24, -3.2515588845574982e-24, 0.0, 0.0, 0.0, 0.0009977970586543838]
---
header: 
  seq: 17
  stamp: 
    secs: 1509918145
    nsecs:  72064161
  frame_id: amiro1/odom
child_frame_id: amiro1/base_link
pose: 
  pose: 
    position: 
      x: -0.0114598614263
      y: -0.0341410356304
      z: 0.0
    orientation: 
      x: 0.0
      y: 0.0
      z: 0.0316872291152
      w: 0.99949783367
  covariance: [0.014604446712033283, -1.8515655728303288e-19, 0.0, 0.0, 0.0, -5.176475584209829e-12, -1.8518732115791711e-19, 0.014604446712033283, 0.0, 0.0, 0.0, 3.62416092866689e-12, 0.0, 0.0, 9.996312653022852e-07, 2.1572422759639873e-22, -1.855094179976317e-22, 0.0, 0.0, 0.0, 2.1572422759639854e-22, 9.992630743427659e-07, 9.702107193720865e-33, 0.0, 0.0, 0.0, -1.855094179976317e-22, 4.4582268947026405e-33, 9.992630743427659e-07, 0.0, -5.176475584209829e-12, 3.62416092866689e-12, 0.0, 0.0, 0.0, 0.004109235118085815]
twist: 
  twist: 
    linear: 
      x: -1.86044246859e-07
      y: -1.14199815898e-07
      z: 0.0
    angular: 
      x: 0.0
      y: 0.0
      z: 6.0743346514e-06
  covariance: [0.0024418049144031787, -2.2600839881837316e-26, 0.0, 0.0, 0.0, -1.3491135435387282e-17, -1.7355739734045837e-26, 0.0024418049144031787, 0.0, 0.0, 0.0, 1.0441913927292082e-17, 0.0, 0.0, 9.994471019472962e-07, 5.047794047958778e-31, -4.920964194826652e-31, 0.0, 0.0, 0.0, 5.047794047958779e-31, 9.9779570867094e-07, -2.7936271691029556e-35, 0.0, 0.0, 0.0, -4.920964194826653e-31, 4.386010013464933e-35, 9.9779570867094e-07, 0.0, -1.3491135435387285e-17, 1.0441913927292082e-17, 0.0, 0.0, 0.0, 0.001901002497134895]
---
header: 
  seq: 18
  stamp: 
    secs: 1509918145
    nsecs: 132872343
  frame_id: amiro1/odom
child_frame_id: amiro1/base_link
pose: 
  pose: 
    position: 
      x: -0.0115081151441
      y: -0.0341777534715
      z: 0.0
    orientation: 
      x: 0.0
      y: 0.0
      z: 0.0319815010862
      w: 0.999488460958
  covariance: [0.014998707331188686, -1.5538631535480256e-19, 0.0, 0.0, 0.0, 4.6956723353474035e-12, -1.5545829031697654e-19, 0.014998707331188686, 0.0, 0.0, 0.0, -8.789584907500383e-12, 0.0, 0.0, 9.994531738914268e-07, 4.4374004356321287e-23, -2.508756493731438e-23, 0.0, 0.0, 0.0, 4.4374004356321264e-23, 9.989075421179124e-07, 6.382464127224692e-33, 0.0, 0.0, 0.0, -2.5087564937314373e-23, -6.378326387109798e-33, 9.989075421179124e-07, 0.0, 4.695672335347403e-12, -8.789584907500385e-12, 0.0, 0.0, 0.0, 0.00436881754640773]
twist: 
  twist: 
    linear: 
      x: -2.72934051514e-10
      y: 2.86718780179e-09
      z: 0.0
    angular: 
      x: 0.0
      y: 0.0
      z: 7.28256967588e-12
  covariance: [0.0007686562802818293, -3.748905135088618e-27, 0.0, 0.0, 0.0, -3.223212970837286e-25, -2.537494406169364e-27, 0.0007686562802818293, 0.0, 0.0, 0.0, 3.0459451760343076e-26, 0.0, 0.0, 9.991802090185991e-07, 1.0511599153059772e-31, -6.853039732643445e-32, 0.0, 0.0, 0.0, 1.0511599153059772e-31, 9.967368513823308e-07, 1.378154715883828e-34, 0.0, 0.0, 0.0, -6.853039732643447e-32, -1.3781547158657644e-34, 9.96736851382331e-07, 0.0, -3.22321297083729e-25, 3.045945176034317e-26, 0.0, 0.0, 0.0, 0.0006089125142818277]
---
header: 
  seq: 19
  stamp: 
    secs: 1509918145
    nsecs: 169411659
  frame_id: amiro1/odom
child_frame_id: amiro1/base_link
pose: 
  pose: 
    position: 
      x: -0.0115475225956
      y: -0.03420774292
      z: 0.0
    orientation: 
      x: 0.0
      y: 0.0
      z: 0.0321317872555
      w: 0.99948364081
  covariance: [0.014403217092364246, -1.112883732944742e-19, 0.0, 0.0, 0.0, 2.0514165118237776e-12, -1.1134746409142075e-19, 0.014403217092364246, 0.0, 0.0, 0.0, -4.602831427664634e-12, 0.0, 0.0, 9.995442862107552e-07, 6.948816371501624e-23, 6.61223533258473e-24, 0.0, 0.0, 0.0, 6.94881637150162e-23, 9.990894022337466e-07, -1.3752813706880435e-32, 0.0, 0.0, 0.0, 6.612235332584732e-24, -1.8176998285183262e-32, 9.990894022337466e-07, 0.0, 2.051416511823778e-12, -4.602831427664634e-12, 0.0, 0.0, 0.0, 0.003962078043305477]
twist: 
  twist: 
    linear: 
      x: -7.60171779525e-08
      y: -4.38122244992e-08
      z: 0.0
    angular: 
      x: 0.0
      y: 0.0
      z: 1.01966112517e-06
  covariance: [0.0017114035515562729, -1.7798000508799128e-26, 0.0, 0.0, 0.0, 1.2616520484749048e-18, -1.1544640947181006e-25, 0.0017114035515562729, 0.0, 0.0, 0.0, -3.500861201878991e-18, 0.0, 0.0, 9.99316740679779e-07, 1.7208192468534447e-31, 5.317859161165226e-33, 0.0, 0.0, 0.0, 1.7208192468534451e-31, 9.97278096085303e-07, -1.2533279533300927e-34, 0.0, 0.0, 0.0, 5.317859161165231e-33, -8.64090939426262e-35, 9.972780960853031e-07, 0.0, 1.2616520484749055e-18, -3.500861201878991e-18, 0.0, 0.0, 0.0, 0.0013396689482684059]
---
header: 
  seq: 20
  stamp: 
    secs: 1509918145
    nsecs: 227645159
  frame_id: amiro1/odom
child_frame_id: amiro1/base_link
pose: 
  pose: 
    position: 
      x: -0.0116112009308
      y: -0.034265023002
      z: 0.0
    orientation: 
      x: 0.0
      y: 0.0
      z: 0.0316766160937
      w: 0.99949817008
  covariance: [0.015200270989005674, -6.555572615564435e-19, 0.0, 0.0, 0.0, 4.0184424783213926e-11, -6.557757702716606e-19, 0.015200270989005674, 0.0, 0.0, 0.0, -5.007915147952895e-11, 0.0, 0.0, 9.995009769425112e-07, -4.7223065805668324e-21, 6.420730716207684e-21, 0.0, 0.0, 0.0, -4.722306580566833e-21, 9.990029485381016e-07, 7.180479884305465e-32, 0.0, 0.0, 0.0, 6.420730716207684e-21, 4.971531531544677e-32, 9.990029485381016e-07, 0.0, 4.0184424783213926e-11, -5.0079151479528955e-11, 0.0, 0.0, 0.0, 0.0055325148339748186]
twist: 
  twist: 
    linear: 
      x: -1.20529047262e-13
      y: -8.81569903057e-14
      z: 0.0
    angular: 
      x: 0.0
      y: 0.0
      z: -2.70959344524e-12
  covariance: [9.99999693420184e-10, -8.867620072649255e-38, 0.0, 0.0, 0.0, 9.922902533770189e-31, -6.015194936385473e-38, 9.99999693420184e-10, 0.0, 0.0, 0.0, -2.839563931948172e-30, 0.0, 0.0, 9.992518386567706e-07, -1.0595805684704984e-29, 1.6502516592366621e-29, 0.0, 0.0, 0.0, -1.0595805684704983e-29, 9.970206928323086e-07, -7.103088913054955e-35, 0.0, 0.0, 0.0, 1.6502516592366616e-29, 7.102978152851158e-35, 9.970206928323086e-07, 0.0, 9.9229025337702e-31, -2.8395639319481732e-30, 0.0, 0.0, 0.0, 9.999996006706395e-10]
---
header: 
  seq: 21
  stamp: 
    secs: 1509918145
    nsecs: 275163651
  frame_id: amiro1/odom
child_frame_id: amiro1/base_link
pose: 
  pose: 
    position: 
      x: -0.0116778388251
      y: -0.034325312204
      z: 0.0
    orientation: 
      x: 0.0
      y: 0.0
      z: 0.0308567945669
      w: 0.999523815739
  covariance: [0.01494882904020074, -4.0239315331425837e-19, 0.0, 0.0, 0.0, 1.8827044796143834e-11, -4.0255029001391155e-19, 0.01494882904020074, 0.0, 0.0, 0.0, -2.37953209091936e-11, 0.0, 0.0, 9.996495054317397e-07, -1.875722431525442e-23, 6.133629988832972e-23, 0.0, 0.0, 0.0, -1.875722431525443e-23, 9.992995020870072e-07, -6.701258195167697e-34, 0.0, 0.0, 0.0, 6.133629988832972e-23, 6.767556076554074e-34, 9.992995020870072e-07, 0.0, 1.8827044796143834e-11, -2.3795320909193603e-11, 0.0, 0.0, 0.0, 0.004560376227964697]
twist: 
  twist: 
    linear: 
      x: -1.83130065441e-08
      y: -9.41142585421e-09
      z: 0.0
    angular: 
      x: 0.0
      y: 0.0
      z: -1.91600470062e-11
  covariance: [0.001208301230556105, -8.59516235710251e-27, 0.0, 0.0, 0.0, 1.4232001327583932e-24, -7.44749191515735e-27, 0.001208301230556105, 0.0, 0.0, 0.0, -2.83117431594999e-24, 0.0, 0.0, 9.994744424438139e-07, -3.671302198803073e-32, 1.543580502430067e-31, 0.0, 0.0, 0.0, -3.6713021988030757e-32, 9.979043632556858e-07, -2.2228350600436976e-35, 0.0, 0.0, 0.0, 1.543580502430067e-31, 2.2228350595570749e-35, 9.979043632556858e-07, 0.0, 1.4232001327583932e-24, -2.831174315949991e-24, 0.0, 0.0, 0.0, 0.0009503708348995026]
---
header: 
  seq: 22
  stamp: 
    secs: 1509918145
    nsecs: 334921837
  frame_id: amiro1/odom
child_frame_id: amiro1/base_link
pose: 
  pose: 
    position: 
      x: -0.0116936231281
      y: -0.0343345220238
      z: 0.0
    orientation: 
      x: 0.0
      y: 0.0
      z: 0.0315321269995
      w: 0.999502738849
  covariance: [0.015212200526103871, -3.0647603746673013e-19, 0.0, 0.0, 0.0, 1.0977505334385318e-11, -3.0651885282390546e-19, 0.015212200526103871, 0.0, 0.0, 0.0, -1.478626082344232e-11, 0.0, 0.0, 9.99721253920345e-07, -1.4217121987955537e-22, 2.766420713929324e-22, 0.0, 0.0, 0.0, -1.4217121987955541e-22, 9.99442818852147e-07, 1.0776673599581551e-32, 0.0, 0.0, 0.0, 2.766420713929324e-22, -1.0494507935610169e-32, 9.99442818852147e-07, 0.0, 1.0977505334385321e-11, -1.4786260823442322e-11, 0.0, 0.0, 0.0, 0.00449013385449924]
twist: 
  twist: 
    linear: 
      x: -1.13433090165e-07
      y: -5.75374601311e-08
      z: 0.0
    angular: 
      x: 0.0
      y: 0.0
      z: 9.41739429005e-06
  covariance: [0.002787216992857795, 3.7393804971327843e-25, 0.0, 0.0, 0.0, 4.788033588046303e-17, -8.659238285450342e-25, 0.002787216992857795, 0.0, 0.0, 0.0, -7.367622374801065e-17, 0.0, 0.0, 9.995819975523707e-07, -3.098802450841914e-31, 7.071628887656834e-31, 0.0, 0.0, 0.0, -3.0988024508419137e-31, 9.983321651979193e-07, -1.2907452205073133e-35, 0.0, 0.0, 0.0, 7.071628887656836e-31, 1.290745220507757e-35, 9.983321651979193e-07, 0.0, 4.788033588046303e-17, -7.367622374801065e-17, 0.0, 0.0, 0.0, 0.002145356847246862]
---
header: 
  seq: 23
  stamp: 
    secs: 1509918145
    nsecs: 354167461
  frame_id: amiro1/odom
child_frame_id: amiro1/base_link
pose: 
  pose: 
    position: 
      x: -0.0122773936425
      y: -0.0359566128114
      z: 0.0
    orientation: 
      x: 0.0
      y: 0.0
      z: 0.0357249756547
      w: 0.999361659318
  covariance: [0.0139218273267516, -2.538353624583075e-19, 0.0, 0.0, 0.0, 8.920419663057821e-12, -2.370744215576996e-19, 0.0139218273267516, 0.0, 0.0, 0.0, -1.3022114109555093e-11, 0.0, 0.0, 9.909761998314965e-07, -5.579615594820118e-23, 1.0884985744996778e-22, 0.0, 0.0, 0.0, -5.579615594820118e-23, 9.822718931112725e-07, -1.5407439555097887e-33, 0.0, 0.0, 0.0, 1.0884985744996778e-22, 1.5407439555097887e-33, 9.822718931112725e-07, 0.0, 8.920419663057826e-12, -1.3022114109555093e-11, 0.0, 0.0, 0.0, 0.003608068091276868]
twist: 
  twist: 
    linear: 
      x: -3.99929868063e-09
      y: -7.89570853899e-09
      z: 0.0
    angular: 
      x: 0.0
      y: 0.0
      z: 4.74114698471e-11
  covariance: [4.5374601863239364e-05, -7.972856798818575e-30, 0.0, 0.0, 0.0, 9.291485752768935e-26, -1.3072777100458983e-29, 4.5374601863239364e-05, 0.0, 0.0, 0.0, -1.428460347237924e-25, 0.0, 0.0, 9.865852081765493e-07, -1.1099269546312852e-31, 2.5509323029054093e-31, 0.0, 0.0, 0.0, -1.1099269546312858e-31, 9.503249485698765e-07, -1.0491023174125673e-33, 0.0, 0.0, 0.0, 2.5509323029054107e-31, 1.0491023174125677e-33, 9.503249485698765e-07, 0.0, 9.291485752768932e-26, -1.4284603472379244e-25, 0.0, 0.0, 0.0, 3.6274002624110705e-05]
---
header: 
  seq: 24
  stamp: 
    secs: 1509918145
    nsecs: 422748804
  frame_id: amiro1/odom
child_frame_id: amiro1/base_link
pose: 
  pose: 
    position: 
      x: -0.0122040350816
      y: -0.0357243186645
      z: 0.0
    orientation: 
      x: 0.0
      y: 0.0
      z: 0.0342590372425
      w: 0.999412986891
  covariance: [0.014785810940829338, -3.961760284351214e-19, 0.0, 0.0, 0.0, 2.3609327630677828e-11, -3.8400438126957077e-19, 0.014785810940829338, 0.0, 0.0, 0.0, -1.4370591378737747e-11, 0.0, 0.0, 9.997570973826305e-07, -1.2483201413931625e-21, 6.323307294288218e-22, 0.0, 0.0, 0.0, -1.248320141393163e-21, 9.995144280462789e-07, 1.3837966517654001e-32, 0.0, 0.0, 0.0, 6.323307294288216e-22, -7.33828209376531e-33, 9.995144280462789e-07, 0.0, 2.360932763067783e-11, -1.4370591378737746e-11, 0.0, 0.0, 0.0, 0.004357652369519426]
twist: 
  twist: 
    linear: 
      x: -1.17212199666e-07
      y: -2.0973966805e-07
      z: 0.0
    angular: 
      x: 0.0
      y: 0.0
      z: -9.449351726e-07
  covariance: [0.001808692715882652, -9.902417228688582e-27, 0.0, 0.0, 0.0, 5.059871780802674e-19, -3.599451238270864e-26, 0.001808692715882652, 0.0, 0.0, 0.0, -4.389246972163979e-19, 0.0, 0.0, 9.996357337644308e-07, -2.6649566450638303e-30, 1.6003059092614474e-30, 0.0, 0.0, 0.0, -2.6649566450638293e-30, 9.985460123476885e-07, 4.4858322975779683e-35, 0.0, 0.0, 0.0, 1.600305909261446e-30, -4.485832297577904e-35, 9.985460123476885e-07, 0.0, 5.059871780802674e-19, -4.389246972163979e-19, 0.0, 0.0, 0.0, 0.001407900507370935]
---
header: 
  seq: 25
  stamp: 
    secs: 1509918145
    nsecs: 476771355
  frame_id: amiro1/odom
child_frame_id: amiro1/base_link
pose: 
  pose: 
    position: 
      x: -0.0119521304756
      y: -0.0353502965705
      z: 0.0
    orientation: 
      x: 0.0
      y: 0.0
      z: 0.0334582009249
      w: 0.999440117661
  covariance: [0.01495480680539246, -4.929740045399646e-19, 0.0, 0.0, 0.0, 6.128186633455922e-12, -4.843345001859823e-19, 0.01495480680539246, 0.0, 0.0, 0.0, 5.303615263677579e-12, 0.0, 0.0, 9.967188095823348e-07, 1.8210149378114981e-19, -1.5148782859197955e-19, 0.0, 0.0, 0.0, 1.8210149378114989e-19, 9.934803821000194e-07, 8.423232404487986e-30, 0.0, 0.0, 0.0, -1.514878285919796e-19, 8.424440128542875e-30, 9.934803821000194e-07, 0.0, 6.128186633455908e-12, 5.3036152636775825e-12, 0.0, 0.0, 0.0, 0.004521692487137973]
twist: 
  twist: 
    linear: 
      x: 4.29883062521e-13
      y: 5.15872681173e-13
      z: 0.0
    angular: 
      x: 0.0
      y: 0.0
      z: -6.58880506985e-12
  covariance: [9.99999693708814e-10, 7.451531201349075e-38, 0.0, 0.0, 0.0, 3.712532743986881e-29, -2.4300422696275914e-37, 9.99999693708814e-10, 0.0, 0.0, 0.0, -2.2625312194007974e-29, 0.0, 0.0, 9.95094304253592e-07, 4.066568843245672e-28, -3.8713499413096474e-28, 0.0, 0.0, 0.0, 4.066568843245675e-28, 9.809375880125752e-07, 4.996624152620229e-34, 0.0, 0.0, 0.0, -3.8713499413096483e-28, 5.154189756479283e-34, 9.809375880125752e-07, 0.0, 3.7125327439868785e-29, -2.2625312194007974e-29, 0.0, 0.0, 0.0, 9.999995980814622e-10]
---
header: 
  seq: 26
  stamp: 
    secs: 1509918145
    nsecs: 531785727
  frame_id: amiro1/odom
child_frame_id: amiro1/base_link
pose: 
  pose: 
    position: 
      x: -0.0117323691723
      y: -0.0350239633656
      z: 0.0
    orientation: 
      x: 0.0
      y: 0.0
      z: 0.0329765469493
      w: 0.999456125776
  covariance: [0.015042349332454786, -3.598825850393918e-19, 0.0, 0.0, 0.0, 1.0185244551853394e-11, -3.5364858549545675e-19, 0.015042349332454786, 0.0, 0.0, 0.0, 2.0929323832913998e-13, 0.0, 0.0, 9.996972322831683e-07, -5.989635241804054e-22, 2.3639746015581967e-22, 0.0, 0.0, 0.0, -5.989635241804053e-22, 9.993948297644833e-07, 3.586010086392503e-33, 0.0, 0.0, 0.0, 2.363974601558196e-22, -2.643921893869489e-33, 9.993948297644833e-07, 0.0, 1.0185244551853388e-11, 2.0929323832914134e-13, 0.0, 0.0, 0.0, 0.004389132136488268]
twist: 
  twist: 
    linear: 
      x: 2.74030252256e-09
      y: -5.51829832955e-08
      z: 0.0
    angular: 
      x: 0.0
      y: 0.0
      z: -1.59778399211e-11
  covariance: [0.0014074050635868149, -2.0117280259715174e-26, 0.0, 0.0, 0.0, 2.2363166564544396e-23, -2.0904028124234295e-26, 0.0014074050635868149, 0.0, 0.0, 0.0, -1.464017934244231e-23, 0.0, 0.0, 9.995459855261885e-07, -1.387585398686183e-30, 6.577441603002087e-31, 0.0, 0.0, 0.0, -1.3875853986861822e-30, 9.981888148051928e-07, 3.723843606538341e-36, 0.0, 0.0, 0.0, 6.577441603002083e-31, -3.720513747733059e-36, 9.981888148051926e-07, 0.0, 2.2363166564544384e-23, -1.464017934244231e-23, 0.0, 0.0, 0.0, 0.0011002884374385626]
---
header: 
  seq: 27
  stamp: 
    secs: 1509918145
    nsecs: 561256886
  frame_id: amiro1/odom
child_frame_id: amiro1/base_link
pose: 
  pose: 
    position: 
      x: -0.0120329255236
      y: -0.0357538774298
      z: 0.0
    orientation: 
      x: 0.0
      y: 0.0
      z: 0.0348817829334
      w: 0.99939144544
  covariance: [0.014175893516098131, -2.624853761230904e-19, 0.0, 0.0, 0.0, 1.0190502903533e-11, -2.578999136644038e-19, 0.014175893516098131, 0.0, 0.0, 0.0, 6.661873875255863e-13, 0.0, 0.0, 9.99435114450671e-07, -1.3136247407386393e-21, -6.522380326974599e-23, 0.0, 0.0, 0.0, -1.3136247407386372e-21, 9.988715038137223e-07, -1.3521956464830777e-20, 0.0, 0.0, 0.0, -6.522380326978153e-23, 1.3521956464863188e-20, 9.988715038137223e-07, 0.0, 1.0190502903532999e-11, 6.66187387525587e-13, 0.0, 0.0, 0.0, 0.0038112521005708297]
twist: 
  twist: 
    linear: 
      x: -9.89752479895e-07
      y: -2.10788913201e-06
      z: 0.0
    angular: 
      x: 0.0
      y: 0.0
      z: 2.00755783267e-05
  covariance: [0.002188171458608371, -2.5241340135746703e-25, 0.0, 0.0, 0.0, 2.0138900839228534e-17, -2.583553870953362e-25, 0.002188171458608371, 0.0, 0.0, 0.0, -2.406385652061732e-18, 0.0, 0.0, 9.991531500740372e-07, -3.248235484275871e-30, 5.312450848272305e-32, 0.0, 0.0, 0.0, -3.24823548427587e-30, 9.966297032476807e-07, -2.512440492362819e-34, 0.0, 0.0, 0.0, 5.312450848272311e-32, 2.4292616775177722e-34, 9.966297032476807e-07, 0.0, 2.0138900839228534e-17, -2.4063856520617317e-18, 0.0, 0.0, 0.0, 0.0016896465424712252]
---
header: 
  seq: 28
  stamp: 
    secs: 1509918145
    nsecs: 626500845
  frame_id: amiro1/odom
child_frame_id: amiro1/base_link
pose: 
  pose: 
    position: 
      x: -0.011995638361
      y: -0.0355507594757
      z: 0.0
    orientation: 
      x: 0.0
      y: 0.0
      z: 0.0337829615767
      w: 0.999429192843
  covariance: [0.014849934088656737, -7.560791624430927e-18, 0.0, 0.0, 0.0, 1.7710408480176047e-10, -7.55754816655811e-18, 0.014849934088656721, 0.0, 0.0, 0.0, -6.527720859465802e-11, 0.0, 0.0, 9.993189151481776e-07, -9.462185404483082e-22, 3.2329182853418357e-22, 0.0, 0.0, 0.0, -9.462185404483078e-22, 9.986396826932632e-07, -1.0720884637691525e-32, 0.0, 0.0, 0.0, 3.232918285341835e-22, 1.1622723903642384e-32, 9.986396826932632e-07, 0.0, 1.771040848017605e-10, -6.527720859465805e-11, 0.0, 0.0, 0.0, 0.0043589444575156755]
twist: 
  twist: 
    linear: 
      x: -2.42199667408e-08
      y: -6.6492445776e-08
      z: 0.0
    angular: 
      x: 0.0
      y: 0.0
      z: -9.05262224726e-12
  covariance: [0.0006176647032179315, -8.404930185443351e-27, 0.0, 0.0, 0.0, 8.460427266552875e-24, -8.212419083299177e-27, 0.0006176647032179315, 0.0, 0.0, 0.0, -3.465517108443416e-24, 0.0, 0.0, 9.989790679143162e-07, -2.2688695668688316e-30, 9.566937430556872e-31, 0.0, 0.0, 0.0, -2.268869566868832e-30, 9.959410944965217e-07, -4.2777039300457787e-35, 0.0, 0.0, 0.0, 9.566937430556874e-31, 4.2777039299648345e-35, 9.959410944965217e-07, 0.0, 8.460427266552875e-24, -3.465517108443416e-24, 0.0, 0.0, 0.0, 0.0004887495504146398]
---
header: 
  seq: 29
  stamp: 
    secs: 1509918145
    nsecs: 667315960
  frame_id: amiro1/odom
child_frame_id: amiro1/base_link
pose: 
  pose: 
    position: 
      x: -0.0118218002279
      y: -0.035322337134
      z: 0.0
    orientation: 
      x: 0.0
      y: 0.0
      z: 0.0335237220608
      w: 0.999437922064
  covariance: [0.014450899463319398, -5.369450013606404e-18, 0.0, 0.0, 0.0, 1.0143383850794189e-10, -5.36707448512891e-18, 0.014450899463319386, 0.0, 0.0, 0.0, -3.649258682717247e-11, 0.0, 0.0, 9.995919879291888e-07, -1.6545604792063366e-21, 6.026742859527776e-22, 0.0, 0.0, 0.0, -1.6545604792063368e-21, 9.991846410801297e-07, 5.3705045504888014e-33, 0.0, 0.0, 0.0, 6.026742859527778e-22, -4.827050002216641e-34, 9.991846410801297e-07, 0.0, 1.0143383850794189e-10, -3.649258682717249e-11, 0.0, 0.0, 0.0, 0.00405068774316416]
twist: 
  twist: 
    linear: 
      x: 2.67259320504e-07
      y: 2.02385622363e-07
      z: 0.0
    angular: 
      x: 0.0
      y: 0.0
      z: -1.51993839002e-06
  covariance: [0.0016796841547480205, -7.730722983612407e-25, 0.0, 0.0, 0.0, 6.75801251007617e-17, -8.748925481644136e-25, 0.0016796841547480205, 0.0, 0.0, 0.0, -2.9629332212240617e-17, 0.0, 0.0, 9.993882314959317e-07, -3.9675612708268e-30, 1.756991251055986e-30, 0.0, 0.0, 0.0, -3.9675612708268005e-30, 9.975618503078335e-07, 4.5387630859772414e-35, 0.0, 0.0, 0.0, 1.756991251055987e-30, -4.5387630859772414e-35, 9.975618503078335e-07, 0.0, 6.758012510076173e-17, -2.962933221224064e-17, 0.0, 0.0, 0.0, 0.0013050281752935964]
---
header: 
  seq: 30
  stamp: 
    secs: 1509918145
    nsecs: 729598045
  frame_id: amiro1/odom
child_frame_id: amiro1/base_link
pose: 
  pose: 
    position: 
      x: -0.0116672345738
      y: -0.0350476200694
      z: 0.0
    orientation: 
      x: 0.0
      y: 0.0
      z: 0.0319276881694
      w: 0.999490181407
  covariance: [0.014943511303960006, -3.0193119534548224e-18, 0.0, 0.0, 0.0, 2.933587425642494e-11, -3.0177600052610957e-18, 0.014943511303959997, 0.0, 0.0, 0.0, 1.1536372270322757e-11, 0.0, 0.0, 9.940363152625299e-07, -4.900620270095223e-22, 7.72946480280626e-23, 0.0, 0.0, 0.0, -4.900620270095222e-22, 9.882131580747687e-07, -8.58242531467562e-33, 0.0, 0.0, 0.0, 7.729464802806258e-23, 8.59446237682804e-33, 9.882131580747687e-07, 0.0, 2.933587425642494e-11, 1.1536372270322745e-11, 0.0, 0.0, 0.0, 0.00437900224999503]
twist: 
  twist: 
    linear: 
      x: 1.06521199576e-09
      y: -2.20682365916e-09
      z: 0.0
    angular: 
      x: 0.0
      y: 0.0
      z: -1.64516319179e-11
  covariance: [6.912563079144398e-05, -2.1016395440375365e-28, 0.0, 0.0, 0.0, 1.426725776236194e-24, -2.4362943572432528e-28, 6.912563079144398e-05, 0.0, 0.0, 0.0, -5.498541630292912e-25, 0.0, 0.0, 9.911074866850048e-07, -1.1017880554897952e-30, 2.471001234871794e-31, 0.0, 0.0, 0.0, -1.1017880554897946e-30, 9.662298671928001e-07, -7.3353274636943556e-34, 0.0, 0.0, 0.0, 2.4710012348717944e-31, 7.335327463694383e-34, 9.662298671928001e-07, 0.0, 1.4267257762361936e-24, -5.4985416302929165e-25, 0.0, 0.0, 0.0, 5.522827966268513e-05]
---
header: 
  seq: 31
  stamp: 
    secs: 1509918145
    nsecs: 756108999
  frame_id: amiro1/odom
child_frame_id: amiro1/base_link
pose: 
  pose: 
    position: 
      x: -0.0121657639599
      y: -0.0363632135652
      z: 0.0
    orientation: 
      x: 0.0
      y: 0.0
      z: 0.0355434087522
      w: 0.999368133419
  covariance: [0.013992669565632714, -2.23979893616823e-18, 0.0, 0.0, 0.0, 1.6573517869879215e-11, -2.2471424349483198e-18, 0.013992669565632703, 0.0, 0.0, 0.0, 6.649555348350574e-12, 0.0, 0.0, 9.993721164315916e-07, -2.6415346197985697e-22, -1.2742140929789377e-22, 0.0, 0.0, 0.0, -2.641534619798499e-22, 9.987457945030907e-07, -2.7037106333013065e-20, 0.0, 0.0, 0.0, -1.274214092979081e-22, 2.703710633301296e-20, 9.987457945030907e-07, 0.0, 1.6573517869879215e-11, 6.6495553483505675e-12, 0.0, 0.0, 0.0, 0.0037381409396564143]
twist: 
  twist: 
    linear: 
      x: -1.20969280555e-07
      y: -3.13568113728e-07
      z: 0.0
    angular: 
      x: 0.0
      y: 0.0
      z: 1.77463593732e-06
  covariance: [0.0007420013697548814, -4.1922740615531884e-26, 0.0, 0.0, 0.0, 3.3298359856320703e-19, -4.475503692048987e-26, 0.0007420013697548814, 0.0, 0.0, 0.0, -3.415802089134432e-20, 0.0, 0.0, 9.990587614724935e-07, -6.22534720449113e-31, -2.527655384671842e-31, 0.0, 0.0, 0.0, -6.225347204491131e-31, 9.962557441762558e-07, -3.123333120151517e-34, 0.0, 0.0, 0.0, -2.527655384671841e-31, 3.485361982966649e-34, 9.96255744176256e-07, 0.0, 3.3298359856320703e-19, -3.4158020891344416e-20, 0.0, 0.0, 0.0, 0.0005854472234841861]
---
header: 
  seq: 32
  stamp: 
    secs: 1509918145
    nsecs: 836793900
  frame_id: amiro1/odom
child_frame_id: amiro1/base_link
pose: 
  pose: 
    position: 
      x: -0.0119550729489
      y: -0.0359232400379
      z: 0.0
    orientation: 
      x: 0.0
      y: 0.0
      z: 0.032927250525
      w: 0.999457751069
  covariance: [0.015277876154966707, -2.7963284300190246e-18, 0.0, 0.0, 0.0, 8.45273341334976e-11, -2.8016958112840523e-18, 0.01527787615496669, 0.0, 0.0, 0.0, -1.871827908448758e-11, 0.0, 0.0, 9.997935206747091e-07, -3.7576834401728415e-21, 1.3567412463244985e-21, 0.0, 0.0, 0.0, -3.757683440172917e-21, 9.99587212202579e-07, -4.60694115241132e-27, 0.0, 0.0, 0.0, 1.356741246324295e-21, 4.606955371096948e-27, 9.99587212202579e-07, 0.0, 8.452733413349761e-11, -1.8718279084487584e-11, 0.0, 0.0, 0.0, 0.004618793791808205]
twist: 
  twist: 
    linear: 
      x: 7.16309462541e-07
      y: 9.60432724849e-07
      z: 0.0
    angular: 
      x: 0.0
      y: 0.0
      z: -2.75978335062e-05
  covariance: [0.0028944722169618343, -2.9577175579499575e-24, 0.0, 0.0, 0.0, 2.931129094355779e-16, -3.0063970937172198e-24, 0.0028944722169618343, 0.0, 0.0, 0.0, -8.134496311051291e-17, 0.0, 0.0, 9.996903451050327e-07, -9.05504565671076e-30, 4.0179120928538585e-30, 0.0, 0.0, 0.0, -9.055045656710976e-30, 9.987636695737696e-07, -3.162877237038493e-35, 0.0, 0.0, 0.0, 4.017912092853369e-30, -1.3027494643134063e-35, 9.987636695737696e-07, 0.0, 2.931129094355779e-16, -8.134496311051294e-17, 0.0, 0.0, 0.0, 0.002199020451422761]
---
header: 
  seq: 33
  stamp: 
    secs: 1509918145
    nsecs: 865283489
  frame_id: amiro1/odom
child_frame_id: amiro1/base_link
pose: 
  pose: 
    position: 
      x: -0.0120384586187
      y: -0.0359927378052
      z: 0.0
    orientation: 
      x: 0.0
      y: 0.0
      z: 0.0334690390513
      w: 0.999439754775
  covariance: [0.014311263011972842, -1.759916114635914e-18, 0.0, 0.0, 0.0, 6.640766091541109e-12, -1.7638826744377247e-18, 0.014311263011972834, 0.0, 0.0, 0.0, 1.5597270340914532e-11, 0.0, 0.0, 9.98651360005751e-07, -9.15999598277102e-22, 1.6319774465509696e-22, 0.0, 0.0, 0.0, -9.15999598277102e-22, 9.973099651584398e-07, -3.340284747296612e-34, 0.0, 0.0, 0.0, 1.6319774465509694e-22, 5.664942375482768e-34, 9.973099651584398e-07, 0.0, 6.640766091541114e-12, 1.5597270340914532e-11, 0.0, 0.0, 0.0, 0.003875582705687387]
twist: 
  twist: 
    linear: 
      x: -1.22709723054e-08
      y: -4.46432543854e-08
      z: 0.0
    angular: 
      x: 0.0
      y: 0.0
      z: -4.65660657513e-12
  covariance: [0.00031000862603814446, -9.365435075185225e-27, 0.0, 0.0, 0.0, 8.000355575522094e-24, -1.0583412458572692e-26, 0.00031000862603814446, 0.0, 0.0, 0.0, -2.1097804599468703e-24, 0.0, 0.0, 9.979797612873296e-07, -2.180609233814205e-30, 5.371705544389044e-31, 0.0, 0.0, 0.0, -2.1806092338142042e-30, 9.92015457381244e-07, 1.5922825453239154e-34, 0.0, 0.0, 0.0, 5.371705544389044e-31, -1.5922825463869864e-34, 9.92015457381244e-07, 0.0, 8.000355575522094e-24, -2.109780459946871e-24, 0.0, 0.0, 0.0, 0.0002464972005611269]
---
header: 
  seq: 34
  stamp: 
    secs: 1509918145
    nsecs: 926770210
  frame_id: amiro1/odom
child_frame_id: amiro1/base_link
pose: 
  pose: 
    position: 
      x: -0.0120410929561
      y: -0.0357964699845
      z: 0.0
    orientation: 
      x: 0.0
      y: 0.0
      z: 0.0319227757572
      w: 0.999490338316
  covariance: [0.014811834786283354, -1.2454017400087373e-18, 0.0, 0.0, 0.0, 2.1540304315936845e-11, -1.248273512604271e-18, 0.014811834786283347, 0.0, 0.0, 0.0, 3.825929842017033e-12, 0.0, 0.0, 9.997290858098034e-07, -1.4034681216521591e-21, 3.857662915286523e-22, 0.0, 0.0, 0.0, -1.4034681216521591e-21, 9.994584649920528e-07, 1.2044115118525158e-33, 0.0, 0.0, 0.0, 3.857662915286523e-22, 2.7926219292485084e-33, 9.994584649920528e-07, 0.0, 2.1540304315936845e-11, 3.825929842017034e-12, 0.0, 0.0, 0.0, 0.004307092902759714]
twist: 
  twist: 
    linear: 
      x: -5.7558765324e-08
      y: 2.81568284253e-08
      z: 0.0
    angular: 
      x: 0.0
      y: 0.0
      z: -6.19854698262e-06
  covariance: [0.0019134424232842263, -7.018767004709858e-25, 0.0, 0.0, 0.0, 1.316564711515811e-17, -8.422543743973304e-25, 0.0019134424232842263, 0.0, 0.0, 0.0, 6.1443753023285015e-19, 0.0, 0.0, 9.995937387960317e-07, -3.3674957156614124e-30, 1.1730563172712116e-30, 0.0, 0.0, 0.0, -3.36749571566141e-30, 9.983788845795483e-07, -3.089834945457789e-35, 0.0, 0.0, 0.0, 1.1730563172712116e-30, 3.089834945457789e-35, 9.983788845795483e-07, 0.0, 1.316564711515811e-17, 6.144375302328496e-19, 0.0, 0.0, 0.0, 0.0014762185439186229]
---
header: 
  seq: 35
  stamp: 
    secs: 1509918145
    nsecs: 988354683
  frame_id: amiro1/odom
child_frame_id: amiro1/base_link
pose: 
  pose: 
    position: 
      x: -0.0118057758062
      y: -0.0353994034099
      z: 0.0
    orientation: 
      x: 0.0
      y: 0.0
      z: 0.0321174838398
      w: 0.99948410054
  covariance: [0.015177729819939314, -9.614942336251756e-19, 0.0, 0.0, 0.0, 1.4759799787583234e-11, -9.63585669615152e-19, 0.01517772981993931, 0.0, 0.0, 0.0, -6.334673480725293e-12, 0.0, 0.0, 9.985661321585595e-07, -6.783515729804275e-22, 2.434762022990971e-22, 0.0, 0.0, 0.0, -6.783515729804276e-22, 9.971404611651198e-07, -1.042484814038044e-32, 0.0, 0.0, 0.0, 2.434762022990972e-22, 1.0655809270430003e-32, 9.971404611651198e-07, 0.0, 1.475979978758323e-11, -6.334673480725293e-12, 0.0, 0.0, 0.0, 0.004445669338410334]
twist: 
  twist: 
    linear: 
      x: 4.41749515363e-09
      y: -7.23420912876e-09
      z: 0.0
    angular: 
      x: 0.0
      y: 0.0
      z: -3.18068262238e-13
  covariance: [0.00029149013037189426, -1.1704629728228582e-26, 0.0, 0.0, 0.0, 2.682269490604518e-24, -1.2355950679264071e-26, 0.00029149013037189426, 0.0, 0.0, 0.0, -2.0826564848314715e-25, 0.0, 0.0, 9.978522767102214e-07, -1.611458111305548e-30, 6.975088303952512e-31, 0.0, 0.0, 0.0, -1.6114581113055492e-30, 9.915182668142281e-07, -3.760726829506223e-35, 0.0, 0.0, 0.0, 6.975088303952513e-31, 3.760726829506223e-35, 9.915182668142281e-07, 0.0, 2.6822694906045182e-24, -2.0826564848314733e-25, 0.0, 0.0, 0.0, 0.0002318058477168812]
---
header: 
  seq: 36
  stamp: 
    secs: 1509918146
    nsecs:  30980825
  frame_id: amiro1/odom
child_frame_id: amiro1/base_link
pose: 
  pose: 
    position: 
      x: -0.0118428044477
      y: -0.0352914939496
      z: 0.0
    orientation: 
      x: 0.0
      y: 0.0
      z: 0.0311954425602
      w: 0.999513303745
  covariance: [0.014755626297010023, -6.916757900545194e-19, 0.0, 0.0, 0.0, 9.270244711178767e-12, -6.932001272419606e-19, 0.014755626297010022, 0.0, 0.0, 0.0, -1.861655656744211e-12, 0.0, 0.0, 9.99609309212721e-07, -2.6629852391622726e-22, -1.625805277118363e-22, 0.0, 0.0, 0.0, -2.662985239162273e-22, 9.992192277429215e-07, -1.7800275855631735e-33, 0.0, 0.0, 0.0, -1.6258052771183634e-22, 1.558423390546156e-33, 9.992192277429215e-07, 0.0, 9.270244711178767e-12, -1.861655656744211e-12, 0.0, 0.0, 0.0, 0.004118912903696958]
twist: 
  twist: 
    linear: 
      x: -9.29908301903e-09
      y: 7.63030830514e-08
      z: 0.0
    angular: 
      x: 0.0
      y: 0.0
      z: -2.60300298634e-06
  covariance: [0.0013935405650696547, -4.606703279740489e-25, 0.0, 0.0, 0.0, 2.936048705058618e-18, -3.7975206293128475e-25, 0.0013935405650696547, 0.0, 0.0, 0.0, -6.34266692053219e-19, 0.0, 0.0, 9.994141924836543e-07, -6.7399634693103965e-31, -3.542070955113694e-31, 0.0, 0.0, 0.0, -6.739963469310399e-31, 9.976649313940827e-07, 2.7906665526509843e-36, 0.0, 0.0, 0.0, -3.542070955113696e-31, -2.7906665526509843e-36, 9.976649313940827e-07, 0.0, 2.936048705058618e-18, -6.34266692053219e-19, 0.0, 0.0, 0.0, 0.001084322955787157]
---
header: 
  seq: 37
  stamp: 
    secs: 1509918146
    nsecs:  72847605
  frame_id: amiro1/odom
child_frame_id: amiro1/base_link
pose: 
  pose: 
    position: 
      x: -0.011833976272
      y: -0.0351608765908
      z: 0.0
    orientation: 
      x: 0.0
      y: 0.0
      z: 0.0316601600743
      w: 0.999498691477
  covariance: [0.014422279021203148, -5.017342955989262e-19, 0.0, 0.0, 0.0, -1.886129208947662e-12, -5.028937768048216e-19, 0.014422279021203148, 0.0, 0.0, 0.0, -1.7842068078332692e-12, 0.0, 0.0, 9.99602228810696e-07, 9.979376663941269e-22, 6.10938631648946e-23, 0.0, 0.0, 0.0, 9.97937666394128e-22, 9.992050901850504e-07, -1.6810979809979698e-33, 0.0, 0.0, 0.0, 6.109386316489465e-23, 1.3745290543035172e-33, 9.992050901850504e-07, 0.0, -1.8861292089476625e-12, -1.7842068078332694e-12, 0.0, 0.0, 0.0, 0.003987966390147762]
twist: 
  twist: 
    linear: 
      x: 7.96729493889e-08
      y: 6.80896603299e-07
      z: 0.0
    angular: 
      x: 0.0
      y: 0.0
      z: 4.57649554518e-06
  covariance: [0.0025227010386738146, -3.685663246622346e-24, 0.0, 0.0, 0.0, 2.827800292233198e-17, -3.658693113264439e-24, 0.0025227010386738146, 0.0, 0.0, 0.0, -1.1250823490050614e-17, 0.0, 0.0, 9.994035805447652e-07, 2.473830101783031e-30, -3.1004967072278815e-33, 0.0, 0.0, 0.0, 2.473830101783033e-30, 9.976228140823277e-07, 2.665095497826056e-35, 0.0, 0.0, 0.0, -3.100496707227906e-33, -2.665095497826058e-35, 9.97622814082328e-07, 0.0, 2.827800292233198e-17, -1.1250823490050606e-17, 0.0, 0.0, 0.0, 0.0019215008898701552]
---
header: 
  seq: 38
  stamp: 
    secs: 1509918146
    nsecs: 136167526
  frame_id: amiro1/odom
child_frame_id: amiro1/base_link
pose: 
  pose: 
    position: 
      x: -0.0116774497309
      y: -0.0349100668629
      z: 0.0
    orientation: 
      x: 0.0
      y: 0.0
      z: 0.0308803039233
      w: 0.999523089693
  covariance: [0.01495745604831665, -4.0487664771709896e-19, 0.0, 0.0, 0.0, -4.063710543183855e-11, -4.0583849967629294e-19, 0.01495745604831665, 0.0, 0.0, 0.0, 1.8391443271993855e-12, 0.0, 0.0, 9.995117094557579e-07, 1.4509852955341379e-22, -8.338363104436026e-23, 0.0, 0.0, 0.0, 1.450985295534138e-22, 9.990243714266133e-07, 3.5789571202875694e-33, 0.0, 0.0, 0.0, -8.338363104436026e-23, -3.529398278456902e-33, 9.990243714266133e-07, 0.0, -4.063710543183856e-11, 1.839144327199385e-12, 0.0, 0.0, 0.0, 0.004378101568814966]
twist: 
  twist: 
    linear: 
      x: 3.70046909803e-08
      y: 5.5020316174e-08
      z: 0.0
    angular: 
      x: 0.0
      y: 0.0
      z: -1.19578002195e-11
  covariance: [0.0008679685509140098, -1.281973134643201e-25, 0.0, 0.0, 0.0, 2.7079600159981467e-24, -1.4713847087619532e-25, 0.0008679685509140098, 0.0, 0.0, 0.0, -1.1469006419261662e-24, 0.0, 0.0, 9.99267921601722e-07, 3.43979340439764e-31, -2.2772404835801476e-31, 0.0, 0.0, 0.0, 3.439793404397642e-31, 9.970844631400334e-07, 7.55054774001425e-35, 0.0, 0.0, 0.0, -2.2772404835801485e-31, -7.550526888145205e-35, 9.970844631400334e-07, 0.0, 2.7079600159981445e-24, -1.1469006419261664e-24, 0.0, 0.0, 0.0, 0.0006819878087764562]
---
header: 
  seq: 39
  stamp: 
    secs: 1509918146
    nsecs: 156804800
  frame_id: amiro1/odom
child_frame_id: amiro1/base_link
pose: 
  pose: 
    position: 
      x: -0.0122312377755
      y: -0.0362939909553
      z: 0.0
    orientation: 
      x: 0.0
      y: 0.0
      z: 0.0337599060023
      w: 0.999429971907
  covariance: [0.013785536244041566, -3.176125264447854e-19, 0.0, 0.0, 0.0, -2.6150959400460487e-11, -3.2656837564693873e-19, 0.013785536244041566, 0.0, 0.0, 0.0, 3.194419177153353e-12, 0.0, 0.0, 9.991937020805716e-07, 1.9181547856554562e-21, -1.2900826443764218e-21, 0.0, 0.0, 0.0, 1.9181547856555262e-21, 9.983899990881762e-07, -2.701784624692225e-20, 0.0, 0.0, 0.0, -1.290082644376318e-21, 2.7017846246928382e-20, 9.983899990881762e-07, 0.0, -2.6150959400460484e-11, 3.1944191771533522e-12, 0.0, 0.0, 0.0, 0.0035965691767297324]
twist: 
  twist: 
    linear: 
