header: 
  seq: 18
  stamp: 
    secs: 1509918537
    nsecs: 837369442
  frame_id: amiro1/odom
child_frame_id: amiro1/base_link
pose: 
  pose: 
    position: 
      x: -0.0224018887754
      y: -0.0330814174509
      z: 0.0
    orientation: 
      x: 0.0
      y: 0.0
      z: -0.0202368888143
      w: 0.999795213197
  covariance: [0.01637056004965152, -6.2340498372163485e-18, 0.0, 0.0, 0.0, -2.5616941687940233e-11, -6.234158625325608e-18, 0.01637056004965152, 0.0, 0.0, 0.0, 2.764732707681031e-11, 0.0, 0.0, 9.985577603834615e-07, 1.8576749088726515e-20, -1.8479235419550006e-20, 0.0, 0.0, 0.0, 1.8576749088726515e-20, 9.971238142675192e-07, 2.511639004097779e-31, 0.0, 0.0, 0.0, -1.847923541955e-20, 2.5120467945643787e-31, 9.971238142675192e-07, 0.0, -2.5616941687940236e-11, 2.7647327076810316e-11, 0.0, 0.0, 0.0, 0.005180553499950791]
twist: 
  twist: 
    linear: 
      x: 1.19542153981e-13
      y: 1.20192847179e-13
      z: 0.0
    angular: 
      x: 0.0
      y: 0.0
      z: 7.53171206837e-24
  covariance: [9.999996922728863e-10, -4.016629445248667e-37, 0.0, 0.0, 0.0, -4.896494198339074e-30, -5.189364373853796e-37, 9.999996922728863e-10, 0.0, 0.0, 0.0, 4.8769467178884226e-30, 0.0, 0.0, 9.97839755323417e-07, 4.7077696402274004e-29, -4.318426569667624e-29, 0.0, 0.0, 0.0, 4.7077696402274015e-29, 9.914694759572515e-07, -5.108599872986628e-35, 0.0, 0.0, 0.0, -4.318426569667624e-29, 1.184184018064367e-34, 9.914694759572515e-07, 0.0, -4.896494198339072e-30, 4.8769467178884226e-30, 0.0, 0.0, 0.0, 9.999996007044183e-10]
---
header: 
  seq: 19
  stamp: 
    secs: 1509918537
    nsecs: 885509491
  frame_id: amiro1/odom
child_frame_id: amiro1/base_link
pose: 
  pose: 
    position: 
      x: -0.022329521119
      y: -0.0330145848063
      z: 0.0
    orientation: 
      x: 0.0
      y: 0.0
      z: -0.0202368888143
      w: 0.999795213197
  covariance: [0.01580908146971497, -4.396594320247814e-18, 0.0, 0.0, 0.0, -1.2426690450708954e-11, -4.396671870164926e-18, 0.01580908146971497, 0.0, 0.0, 0.0, 1.3378877474812455e-11, 0.0, 0.0, 9.99654027580223e-07, 5.0440991221776914e-23, -4.709882587854221e-23, 0.0, 0.0, 0.0, 5.0440991221776926e-23, 9.993085331301405e-07, 6.181807241539328e-33, 0.0, 0.0, 0.0, -4.7098825878542215e-23, -6.167654289555427e-33, 9.993085331301405e-07, 0.0, -1.2426690450708952e-11, 1.3378877474812462e-11, 0.0, 0.0, 0.0, 0.004465646075753114]
twist: 
  twist: 
    linear: 
      x: 1.6302771852e-08
      y: 1.68967640426e-08
      z: 0.0
    angular: 
      x: 0.0
      y: 0.0
      z: 1.9707982375e-23
  covariance: [0.0012228759605864578, -1.1817330206829152e-26, 0.0, 0.0, 0.0, -2.877839145201024e-24, -1.0040869504120159e-26, 0.0012228759605864578, 0.0, 0.0, 0.0, 2.856754260535118e-24, 0.0, 0.0, 9.994812207351335e-07, 1.2784722419195598e-31, -1.100432123691183e-31, 0.0, 0.0, 0.0, 1.27847224191956e-31, 9.979312854008953e-07, 1.1730503155626849e-35, 0.0, 0.0, 0.0, -1.1004321236911827e-31, -1.1730215001669873e-35, 9.979312854008953e-07, 0.0, -2.877839145201024e-24, 2.856754260535118e-24, 0.0, 0.0, 0.0, 0.0009628019796138582]
---
header: 
  seq: 20
  stamp: 
    secs: 1509918537
    nsecs: 940914869
  frame_id: amiro1/odom
child_frame_id: amiro1/base_link
pose: 
  pose: 
    position: 
      x: -0.0222691248364
      y: -0.0329588073411
      z: 0.0
    orientation: 
      x: 0.0
      y: 0.0
      z: -0.0202368888143
      w: 0.999795213197
  covariance: [0.01567124640286803, -3.1448209116733585e-18, 0.0, 0.0, 0.0, -8.886683933566603e-12, -3.1448362058132283e-18, 0.01567124640286803, 0.0, 0.0, 0.0, 9.47651067041957e-12, 0.0, 0.0, 9.996993679593437e-07, 2.662550075572852e-22, -2.568949464398065e-22, 0.0, 0.0, 0.0, 2.6625500755728532e-22, 9.993990975827884e-07, 9.566149517104759e-33, 0.0, 0.0, 0.0, -2.5689494643980646e-22, -9.111115653901452e-33, 9.993990975827884e-07, 0.0, -8.886683933566598e-12, 9.476510670419575e-12, 0.0, 0.0, 0.0, 0.00437978838974455]
twist: 
  twist: 
    linear: 
      x: 2.6736326823e-07
      y: 2.68984580289e-07
      z: 0.0
    angular: 
      x: 0.0
      y: 0.0
      z: 8.63981982445e-18
  covariance: [0.0026796996310981956, -2.1227325227510852e-24, 0.0, 0.0, 0.0, -3.950509413492524e-17, -2.940584844698655e-24, 0.0026796996310981956, 0.0, 0.0, 0.0, 3.887292533515906e-17, 0.0, 0.0, 9.995491876153967e-07, 6.858356063798255e-31, -6.101099546045392e-31, 0.0, 0.0, 0.0, 6.858356063798256e-31, 9.982016061152885e-07, -4.8618601837617e-35, 0.0, 0.0, 0.0, -6.101099546045392e-31, 4.861860183854688e-35, 9.982016061152885e-07, 0.0, -3.950509413492524e-17, 3.887292533515911e-17, 0.0, 0.0, 0.0, 0.00207074961601114]
---
header: 
  seq: 21
  stamp: 
    secs: 1509918537
    nsecs: 972871542
  frame_id: amiro1/odom
child_frame_id: amiro1/base_link
pose: 
  pose: 
    position: 
      x: -0.0223315690295
      y: -0.0330104000818
      z: 0.0
    orientation: 
      x: 0.0
      y: 0.0
      z: -0.0202368888143
      w: 0.999795213197
  covariance: [0.014725576630979832, -2.4205075437438627e-18, 0.0, 0.0, 0.0, -1.762552769385047e-11, -2.4205360104308386e-18, 0.014725576630979832, 0.0, 0.0, 0.0, 1.893785852012536e-11, 0.0, 0.0, 9.98437203810937e-07, 1.342430491335092e-22, -1.3093295239177127e-22, 0.0, 0.0, 0.0, 1.3424304913350917e-22, 9.96884135705123e-07, -6.770847460736376e-36, 0.0, 0.0, 0.0, -1.3093295239177125e-22, 3.009265538105056e-35, 9.96884135705123e-07, 0.0, -1.7625527693850466e-11, 1.893785852012536e-11, 0.0, 0.0, 0.0, 0.0038639796627843786]
twist: 
  twist: 
    linear: 
      x: 3.45798756468e-09
      y: 3.75201897201e-09
      z: 0.0
    angular: 
      x: 0.0
      y: 0.0
      z: -7.3576475528e-24
  covariance: [0.0002668286309364811, -1.3097466472249793e-27, 0.0, 0.0, 0.0, -5.962871935849467e-25, -1.2040608910820865e-27, 0.0002668286309364811, 0.0, 0.0, 0.0, 5.881253928382858e-25, 0.0, 0.0, 9.976594601418108e-07, 3.37805780336829e-31, -3.038090619868043e-31, 0.0, 0.0, 0.0, 3.378057803368291e-31, 9.9076712134346e-07, 4.7775920635435326e-35, 0.0, 0.0, 0.0, -3.0380906198680408e-31, -4.7775920635435326e-35, 9.9076712134346e-07, 0.0, -5.962871935849465e-25, 5.8812539283828575e-25, 0.0, 0.0, 0.0, 0.00021262745721395494]
---
header: 
  seq: 22
  stamp: 
    secs: 1509918538
    nsecs:  33534765
  frame_id: amiro1/odom
child_frame_id: amiro1/base_link
pose: 
  pose: 
    position: 
      x: -0.022386100075
      y: -0.0330554542559
      z: 0.0
    orientation: 
      x: 0.0
      y: 0.0
      z: -0.0202368888143
      w: 0.999795213197
  covariance: [0.015081490541468318, -1.7505663964213682e-18, 0.0, 0.0, 0.0, -1.0131804559456322e-11, -1.7505908526186296e-18, 0.015081490541468318, 0.0, 0.0, 0.0, 1.0767560889641634e-11, 0.0, 0.0, 9.997254101724754e-07, 1.3176652191052088e-22, -1.2144108003707984e-22, 0.0, 0.0, 0.0, 1.3176652191052093e-22, 9.994511216177464e-07, 7.801403358102276e-33, 0.0, 0.0, 0.0, -1.2144108003707981e-22, -7.684864848161754e-33, 9.994511216177464e-07, 0.0, -1.0131804559456322e-11, 1.0767560889641635e-11, 0.0, 0.0, 0.0, 0.004287201420708772]
twist: 
  twist: 
    linear: 
      x: -3.73136187473e-08
      y: -2.90929528846e-08
      z: 0.0
    angular: 
      x: 0.0
      y: 0.0
      z: -1.12128320075e-17
  covariance: [0.0018297275522956731, -2.6645679974972626e-25, 0.0, 0.0, 0.0, -3.497653619217298e-18, -2.0780476366173462e-25, 0.0018297275522956731, 0.0, 0.0, 0.0, 3.4347564768465165e-18, 0.0, 0.0, 9.995882283108738e-07, 3.3360739517591054e-31, -2.833776371855071e-31, 0.0, 0.0, 0.0, 3.336073951759105e-31, 9.983569467410744e-07, 4.2929530191689066e-35, 0.0, 0.0, 0.0, -2.83377637185507e-31, -4.2929530191689066e-35, 9.983569467410744e-07, 0.0, -3.497653619217297e-18, 3.434756476846518e-18, 0.0, 0.0, 0.0, 0.0014258824178061524]
---
header: 
  seq: 23
  stamp: 
    secs: 1509918538
    nsecs:  97832918
  frame_id: amiro1/odom
child_frame_id: amiro1/base_link
pose: 
  pose: 
    position: 
      x: -0.022317734499
      y: -0.032994077634
      z: 0.0
    orientation: 
      x: 0.0
      y: 0.0
      z: -0.0202368888143
      w: 0.999795213197
  covariance: [0.015468633217951132, -1.2345204179145934e-18, 0.0, 0.0, 0.0, -2.3355283813675016e-12, -1.2345035186710477e-18, 0.015468633217951132, 0.0, 0.0, 0.0, 1.361402689031061e-12, 0.0, 0.0, 9.984143763491988e-07, 5.501052332873887e-23, -4.342544388606119e-23, 0.0, 0.0, 0.0, 5.50105233287389e-23, 9.968387736185946e-07, -3.987276837989199e-35, 0.0, 0.0, 0.0, -4.342544388606121e-23, 4.288203391799705e-35, 9.968387736185946e-07, 0.0, -2.3355283813675024e-12, 1.3614026890310618e-12, 0.0, 0.0, 0.0, 0.004489504017446086]
twist: 
  twist: 
    linear: 
      x: 3.8023004244e-09
      y: 4.18717362118e-09
      z: 0.0
    angular: 
      x: 0.0
      y: 0.0
      z: -8.21498005193e-24
  covariance: [0.0002630491390721832, -2.21532583819354e-27, 0.0, 0.0, 0.0, -5.051555070909941e-25, -2.0433618549745918e-27, 0.0002630491390721832, 0.0, 0.0, 0.0, 4.772672479513867e-25, 0.0, 0.0, 9.97625328605332e-07, 1.3789422583668854e-31, -1.0005432033616413e-31, 0.0, 0.0, 0.0, 1.3789422583668848e-31, 9.906345961544768e-07, -6.060693331325567e-35, 0.0, 0.0, 0.0, -1.0005432033616415e-31, 6.060693331325567e-35, 9.906345961544768e-07, 0.0, -5.051555070909942e-25, 4.772672479513869e-25, 0.0, 0.0, 0.0, 0.00020955662591512763]
---
header: 
  seq: 24
  stamp: 
    secs: 1509918538
    nsecs: 135830402
  frame_id: amiro1/odom
child_frame_id: amiro1/base_link
pose: 
  pose: 
    position: 
      x: -0.0222624463137
      y: -0.0329444415432
      z: 0.0
    orientation: 
      x: 0.0
      y: 0.0
      z: -0.0202368888143
      w: 0.999795213197
  covariance: [0.014798631038120454, -8.973023109583344e-19, 0.0, 0.0, 0.0, -2.1691756525308768e-12, -8.97286398423536e-19, 0.014798631038120454, 0.0, 0.0, 0.0, 1.6593138134174664e-12, 0.0, 0.0, 9.995617588890143e-07, 1.7122740929432528e-22, -1.554882408512563e-22, 0.0, 0.0, 0.0, 1.712274092943252e-22, 9.991242840519819e-07, 1.2154611587502453e-34, 0.0, 0.0, 0.0, -1.5548824085125627e-22, -9.4039548065783e-38, 9.991242840519819e-07, 0.0, -2.1691756525308768e-12, 1.6593138134174668e-12, 0.0, 0.0, 0.0, 0.004036848329036848]
twist: 
  twist: 
    linear: 
      x: 5.69331532227e-08
      y: 5.7677846758e-08
      z: 0.0
    angular: 
      x: 0.0
      y: 0.0
      z: 2.08399482802e-18
  covariance: [0.0012356543506523146, -9.845806302951596e-26, 0.0, 0.0, 0.0, -4.231357207144218e-19, -1.2184382384684457e-25, 0.0012356543506523146, 0.0, 0.0, 0.0, 3.3814287230495323e-19, 0.0, 0.0, 9.993429259250062e-07, 4.316061498079606e-31, -3.611710846144499e-31, 0.0, 0.0, 0.0, 4.316061498079606e-31, 9.973819623386577e-07, 1.4698426596573321e-35, 0.0, 0.0, 0.0, -3.6117108461445e-31, -1.4698426596573321e-35, 9.973819623386577e-07, 0.0, -4.231357207144218e-19, 3.381428723049533e-19, 0.0, 0.0, 0.0, 0.0009695025291947952]
---
header: 
  seq: 25
  stamp: 
    secs: 1509918538
    nsecs: 198869944
  frame_id: amiro1/odom
child_frame_id: amiro1/base_link
pose: 
  pose: 
    position: 
      x: -0.0222139837437
      y: -0.0329009331402
      z: 0.0
    orientation: 
      x: 0.0
      y: 0.0
      z: -0.0202368888143
      w: 0.999795213197
  covariance: [0.015223533552954669, -7.049131744601759e-19, 0.0, 0.0, 0.0, -9.84512007215596e-12, -7.048442126015565e-19, 0.015223533552954669, 0.0, 0.0, 0.0, 1.0125514241657834e-11, 0.0, 0.0, 9.997357556444404e-07, 6.669781869025747e-22, -6.515835557923405e-22, 0.0, 0.0, 0.0, 6.669781869025746e-22, 9.994717908082482e-07, 8.861816811979061e-33, 0.0, 0.0, 0.0, -6.515835557923407e-22, -5.572477989847087e-33, 9.994717908082482e-07, 0.0, -9.84512007215596e-12, 1.0125514241657835e-11, 0.0, 0.0, 0.0, 0.004389483905397253]
twist: 
  twist: 
    linear: 
      x: 3.41453054427e-07
      y: 3.37623840415e-07
      z: 0.0
    angular: 
      x: 0.0
      y: 0.0
      z: 2.61548825979e-17
  covariance: [0.0029153779349900292, -2.0539108977656234e-24, 0.0, 0.0, 0.0, -5.2085489434778546e-17, -2.9083234279527207e-24, 0.0029153779349900292, 0.0, 0.0, 0.0, 4.8016987777790196e-17, 0.0, 0.0, 9.996037383254283e-07, 1.7184397644010403e-30, -1.547939120138729e-30, 0.0, 0.0, 0.0, 1.7184397644010406e-30, 9.98418704305069e-07, -1.4106427662778007e-36, 0.0, 0.0, 0.0, -1.54793912013873e-30, 1.4106427662750638e-36, 9.98418704305069e-07, 0.0, -5.208548943477857e-17, 4.8016987777790196e-17, 0.0, 0.0, 0.0, 0.0022300499569795486]
---
header: 
  seq: 26
  stamp: 
    secs: 1509918538
    nsecs: 222337484
  frame_id: amiro1/odom
child_frame_id: amiro1/base_link
pose: 
  pose: 
    position: 
      x: -0.0222814853146
      y: -0.0329584393688
      z: 0.0
    orientation: 
      x: 0.0
      y: 0.0
      z: -0.0202368888143
      w: 0.999795213197
  covariance: [0.014085736391351024, -6.174771869166559e-19, 0.0, 0.0, 0.0, -1.609650963366779e-11, -6.174650456094671e-19, 0.014085736391351024, 0.0, 0.0, 0.0, 1.7275552890006417e-11, 0.0, 0.0, 9.983233272429744e-07, 1.9156108576123399e-22, -1.8434729876421088e-22, 0.0, 0.0, 0.0, 1.9156108576123394e-22, 9.966578418866116e-07, 9.328723168125674e-35, 0.0, 0.0, 0.0, -1.843472987642108e-22, -4.739593222515463e-35, 9.966578418866116e-07, 0.0, -1.609650963366779e-11, 1.727555289000642e-11, 0.0, 0.0, 0.0, 0.003669741632918112]
twist: 
  twist: 
    linear: 
      x: 4.47298909125e-09
      y: 4.89867339013e-09
      z: 0.0
    angular: 
      x: 0.0
      y: 0.0
      z: 2.46853653554e-24
  covariance: [0.00024873458478992, -3.0972993409914013e-27, 0.0, 0.0, 0.0, -5.6372724925128555e-25, -2.929750911116963e-27, 0.00024873458478992, 0.0, 0.0, 0.0, 5.101592331258562e-25, 0.0, 0.0, 9.974891944264982e-07, 4.787790697276311e-31, -4.248822858351978e-31, 0.0, 0.0, 0.0, 4.78779069727631e-31, 9.901051627857833e-07, 1.2958169187031095e-34, 0.0, 0.0, 0.0, -4.248822858351977e-31, -1.2958169187031642e-34, 9.901051627857833e-07, 0.0, -5.6372724925128555e-25, 5.101592331258562e-25, 0.0, 0.0, 0.0, 0.00019814114434774465]
---
header: 
  seq: 27
  stamp: 
    secs: 1509918538
    nsecs: 300215483
  frame_id: amiro1/odom
child_frame_id: amiro1/base_link
pose: 
  pose: 
    position: 
      x: -0.0222300678056
      y: -0.0329127498137
      z: 0.0
    orientation: 
      x: 0.0
      y: 0.0
      z: -0.0202368888143
      w: 0.999795213197
  covariance: [0.015241062175679141, -4.740768198076759e-19, 0.0, 0.0, 0.0, -1.0506584280922265e-11, -4.740649347483537e-19, 0.015241062175679141, 0.0, 0.0, 0.0, 1.1021364924048437e-11, 0.0, 0.0, 9.997860818100635e-07, 1.7150244529453583e-22, -1.565997781777212e-22, 0.0, 0.0, 0.0, 1.715024452945358e-22, 9.995723466708787e-07, 9.039551557823391e-35, 0.0, 0.0, 0.0, -1.5659977817772117e-22, 1.6074885247494782e-34, 9.995723466708787e-07, 0.0, -1.0506584280922265e-11, 1.1021364924048437e-11, 0.0, 0.0, 0.0, 0.0045485142939772905]
twist: 
  twist: 
    linear: 
      x: 1.14258751196e-07
      y: 1.1532750569e-07
      z: 0.0
    angular: 
      x: 0.0
      y: 0.0
      z: 2.15469234896e-19
  covariance: [0.0022783214355232935, -4.976433524320089e-25, 0.0, 0.0, 0.0, -5.724768620269525e-18, -4.377034469564834e-25, 0.0022783214355232935, 0.0, 0.0, 0.0, 5.53260951343226e-18, 0.0, 0.0, 9.996791914023505e-07, 4.3432821693186355e-31, -3.654823037070816e-31, 0.0, 0.0, 0.0, 4.3432821693186355e-31, 9.987192132258253e-07, -2.0861980789297405e-35, 0.0, 0.0, 0.0, -3.6548230370708153e-31, 2.0861980789294668e-35, 9.987192132258253e-07, 0.0, -5.724768620269525e-18, 5.532609513432262e-18, 0.0, 0.0, 0.0, 0.001755688130779325]
---
header: 
  seq: 28
  stamp: 
    secs: 1509918538
    nsecs: 337386370
  frame_id: amiro1/odom
child_frame_id: amiro1/base_link
pose: 
  pose: 
    position: 
      x: -0.0221895819198
      y: -0.0328767742902
      z: 0.0
    orientation: 
      x: 0.0
      y: 0.0
      z: -0.0202368888143
      w: 0.999795213197
  covariance: [0.014764772836315042, -5.688136739620365e-19, 0.0, 0.0, 0.0, -2.726483077409508e-11, -5.688550221063837e-19, 0.014764772836315042, 0.0, 0.0, 0.0, 2.951168947758695e-11, 0.0, 0.0, 9.986272337251706e-07, 1.492877760592809e-20, -1.5157257536311528e-20, 0.0, 0.0, 0.0, 1.4928777605928083e-20, 9.97261977843583e-07, 1.5878105556913828e-31, 0.0, 0.0, 0.0, -1.515725753631153e-20, 1.7088870294066558e-31, 9.97261977843583e-07, 0.0, -2.7264830774095083e-11, 2.951168947758695e-11, 0.0, 0.0, 0.0, 0.004497097664686578]
twist: 
  twist: 
    linear: 
      x: 1.02954584532e-13
      y: 1.01475123063e-13
      z: 0.0
    angular: 
      x: 0.0
      y: 0.0
      z: 4.54354659349e-24
  covariance: [9.999996964757376e-10, -1.9931605687493346e-37, 0.0, 0.0, 0.0, -8.944512302113948e-30, -1.915812919574233e-37, 9.999996964757376e-10, 0.0, 0.0, 0.0, 8.686238195124364e-30, 0.0, 0.0, 9.979436713082109e-07, 3.770235392396129e-29, -3.530095329067331e-29, 0.0, 0.0, 0.0, 3.7702353923961293e-29, 9.918746847773643e-07, 9.120181372458706e-35, 0.0, 0.0, 0.0, -3.530095329067331e-29, -9.120181372459801e-35, 9.918746847773643e-07, 0.0, -8.944512302113948e-30, 8.686238195124363e-30, 0.0, 0.0, 0.0, 9.999995998296452e-10]
---
header: 
  seq: 29
  stamp: 
    secs: 1509918538
    nsecs: 373079300
  frame_id: amiro1/odom
child_frame_id: amiro1/base_link
pose: 
  pose: 
    position: 
      x: -0.0221547289165
      y: -0.0328458040545
      z: 0.0
    orientation: 
      x: 0.0
      y: 0.0
      z: -0.0202368888143
      w: 0.999795213197
  covariance: [0.014199545127305263, -3.995127521385457e-19, 0.0, 0.0, 0.0, -1.522836952953905e-11, -3.995442571200207e-19, 0.014199545127305263, 0.0, 0.0, 0.0, 1.6443554484526214e-11, 0.0, 0.0, 9.99533489769138e-07, 2.276624750947723e-22, -2.201126777266353e-22, 0.0, 0.0, 0.0, 2.2766247509477225e-22, 9.990678480141363e-07, 1.283169633357609e-34, 0.0, 0.0, 0.0, -2.201126777266354e-22, 8.68455226387506e-35, 9.990678480141363e-07, 0.0, -1.5228369529539057e-11, 1.6443554484526214e-11, 0.0, 0.0, 0.0, 0.003989905498512936]
twist: 
  twist: 
    linear: 
      x: 3.32106834836e-08
      y: 3.40133657521e-08
      z: 0.0
    angular: 
      x: 0.0
      y: 0.0
      z: 2.05144139125e-23
  covariance: [0.0009069061644951085, -5.224008730913665e-26, 0.0, 0.0, 0.0, -5.622268215598998e-24, -4.992041657066164e-26, 0.0009069061644951085, 0.0, 0.0, 0.0, 5.466146251907477e-24, 0.0, 0.0, 9.993005605948475e-07, 5.76672762716643e-31, -5.140725744051409e-31, 0.0, 0.0, 0.0, 5.766727627166429e-31, 9.972138729403176e-07, -3.459673372322629e-35, 0.0, 0.0, 0.0, -5.140725744051411e-31, 3.4596733723225625e-35, 9.972138729403176e-07, 0.0, -5.622268215599005e-24, 5.4661462519074796e-24, 0.0, 0.0, 0.0, 0.0007138596044307519]
---
header: 
  seq: 30
  stamp: 
    secs: 1509918538
    nsecs: 445599318
  frame_id: amiro1/odom
child_frame_id: amiro1/base_link
pose: 
  pose: 
    position: 
      x: -0.0222361841352
      y: -0.0329159161341
      z: 0.0
    orientation: 
      x: 0.0
      y: 0.0
      z: -0.0202368888143
      w: 0.999795213197
  covariance: [0.015132793068933857, -4.196558190404015e-19, 0.0, 0.0, 0.0, -1.5853020643518878e-11, -4.1971182161834044e-19, 0.015132793068933857, 0.0, 0.0, 0.0, 1.693280614414764e-11, 0.0, 0.0, 9.997702842378428e-07, 5.240576383765238e-22, -5.116902948041757e-22, 0.0, 0.0, 0.0, 5.240576383765237e-22, 9.995407798584763e-07, -4.269865679926877e-33, 0.0, 0.0, 0.0, -5.116902948041755e-22, 6.60452676503853e-33, 9.995407798584763e-07, 0.0, -1.585302064351888e-11, 1.6932806144147635e-11, 0.0, 0.0, 0.0, 0.004548882067077964]
twist: 
  twist: 
    linear: 
      x: -2.4013104148e-07
      y: -2.15135057704e-07
      z: 0.0
    angular: 
      x: 0.0
      y: 0.0
      z: -2.76679208567e-17
  covariance: [0.002841182845586011, -2.128318198788966e-24, 0.0, 0.0, 0.0, -7.291249978101498e-17, -8.749879703509329e-25, 0.002841182845586011, 0.0, 0.0, 0.0, 7.180622041464895e-17, 0.0, 0.0, 9.996555056525442e-07, 1.3512304255266128e-30, -1.2165148797553307e-30, 0.0, 0.0, 0.0, 1.351230425526613e-30, 9.986248575463828e-07, -9.866360501034008e-36, 0.0, 0.0, 0.0, -1.2165148797553305e-30, 9.866360501033802e-36, 9.986248575463828e-07, 0.0, -7.2912499781015e-17, 7.180622041464895e-17, 0.0, 0.0, 0.0, 0.0021641138645181763]
---
header: 
  seq: 31
  stamp: 
    secs: 1509918538
    nsecs: 488395929
  frame_id: amiro1/odom
child_frame_id: amiro1/base_link
pose: 
  pose: 
    position: 
      x: -0.0223100809957
      y: -0.0329915437252
      z: 0.0
    orientation: 
      x: 0.0
      y: 0.0
      z: -0.0202368888143
      w: 0.999795213197
  covariance: [0.014727978829673343, -2.623727313993468e-19, 0.0, 0.0, 0.0, 3.852084763400951e-14, -2.6240798553413863e-19, 0.014727978829673343, 0.0, 0.0, 0.0, -1.3205417320850961e-12, 0.0, 0.0, 9.993173785866193e-07, 1.5542182762089316e-22, -1.4297846960295903e-22, 0.0, 0.0, 0.0, 1.5542182762089314e-22, 9.986366165504303e-07, -6.0010397202698764e-33, 0.0, 0.0, 0.0, -1.4297846960295896e-22, 6.0663972061755956e-33, 9.986366165504303e-07, 0.0, 3.8520847634008717e-14, -1.3205417320850965e-12, 0.0, 0.0, 0.0, 0.004157725805202638]
twist: 
  twist: 
    linear: 
      x: 5.15887422329e-09
      y: 5.43689315803e-09
      z: 0.0
    angular: 
      x: 0.0
      y: 0.0
      z: -4.89532546868e-24
  covariance: [0.000616720703343278, -2.5137136891752362e-26, 0.0, 0.0, 0.0, -4.1709239562736876e-24, -2.7223634554276415e-26, 0.000616720703343278, 0.0, 0.0, 0.0, 4.087041090248603e-24, 0.0, 0.0, 9.989767657781956e-07, 3.937842072753129e-31, -3.3384544331216088e-31, 0.0, 0.0, 0.0, 3.937842072753129e-31, 9.959319522225905e-07, -8.142154086342181e-35, 0.0, 0.0, 0.0, -3.3384544331216066e-31, 8.142154086342181e-35, 9.959319522225905e-07, 0.0, -4.170923956273689e-24, 4.0870410902486045e-24, 0.0, 0.0, 0.0, 0.0004876480565791948]
---
header: 
  seq: 32
  stamp: 
    secs: 1509918538
    nsecs: 515680790
  frame_id: amiro1/odom
child_frame_id: amiro1/base_link
pose: 
  pose: 
    position: 
      x: -0.0222593357591
      y: -0.032945383969
      z: 0.0
    orientation: 
      x: 0.0
      y: 0.0
      z: -0.0202368888143
      w: 0.999795213197
  covariance: [0.01386202931914841, -1.9462008252557289e-19, 0.0, 0.0, 0.0, -4.829789436097733e-13, -1.9464509272945056e-19, 0.01386202931914841, 0.0, 0.0, 0.0, -2.0159660210786277e-13, 0.0, 0.0, 9.993899060060456e-07, 1.7178108497532896e-22, -1.6299692280308414e-22, 0.0, 0.0, 0.0, 1.7178108497532899e-22, 9.987812980836684e-07, 6.1972062175351e-35, 0.0, 0.0, 0.0, -1.629969228030841e-22, 2.9904576284918994e-35, 9.987812980836684e-07, 0.0, -4.829789436097735e-13, -2.0159660210786302e-13, 0.0, 0.0, 0.0, 0.003668954898722353]
twist: 
  twist: 
    linear: 
      x: 7.3360189833e-08
      y: 7.31050998059e-08
      z: 0.0
    angular: 
      x: 0.0
      y: 0.0
      z: -4.93168224957e-18
  covariance: [0.0013240139270211226, -1.645764263249606e-25, 0.0, 0.0, 0.0, -7.58621321245973e-19, -1.218597638723848e-25, 0.0013240139270211226, 0.0, 0.0, 0.0, 5.18378906114204e-19, 0.0, 0.0, 9.990854167201535e-07, 4.376798069354658e-31, -3.828607153767969e-31, 0.0, 0.0, 0.0, 4.3767980693546595e-31, 9.963615794938983e-07, -1.0231850214640617e-34, 0.0, 0.0, 0.0, -3.8286071537679684e-31, 1.02318502146406e-34, 9.96361579493898e-07, 0.0, -7.586213212459735e-19, 5.183789061142038e-19, 0.0, 0.0, 0.0, 0.0010333340606509527]
---
header: 
  seq: 33
  stamp: 
    secs: 1509918538
    nsecs: 587836266
  frame_id: amiro1/odom
child_frame_id: amiro1/base_link
pose: 
  pose: 
    position: 
      x: -0.0222135772102
      y: -0.0329037602904
      z: 0.0
    orientation: 
      x: 0.0
      y: 0.0
      z: -0.0202368888143
      w: 0.999795213197
  covariance: [0.015010956092365984, -3.441128325813622e-19, 0.0, 0.0, 0.0, -2.5274924999586132e-11, -3.4408244805743023e-19, 0.015010956092365984, 0.0, 0.0, 0.0, 2.720968243008255e-11, 0.0, 0.0, 9.983387104818195e-07, 2.1148748632048514e-20, -2.1344211796280608e-20, 0.0, 0.0, 0.0, 2.1148748632048508e-20, 9.966884200688253e-07, 2.6288555013126795e-31, 0.0, 0.0, 0.0, -2.1344211796280602e-20, 2.805514452882749e-31, 9.966884200688253e-07, 0.0, -2.5274924999586125e-11, 2.7209682430082542e-11, 0.0, 0.0, 0.0, 0.004853314148925378]
twist: 
  twist: 
    linear: 
      x: 1.19397862077e-13
      y: 1.18321001298e-13
      z: 0.0
    angular: 
      x: 0.0
      y: 0.0
      z: -3.71529983697e-24
  covariance: [9.999996954961242e-10, -1.513388835882967e-37, 0.0, 0.0, 0.0, -5.4935334375978664e-30, -1.5970352568886376e-37, 9.999996954961242e-10, 0.0, 0.0, 0.0, 4.864972071051629e-30, 0.0, 0.0, 9.9751219750112e-07, 5.345150214920087e-29, -4.974747546901117e-29, 0.0, 0.0, 0.0, 5.345150214920085e-29, 9.901949983303044e-07, 3.191376515431138e-35, 0.0, 0.0, 0.0, -4.974747546901112e-29, -3.1914641215393556e-35, 9.901949983303044e-07, 0.0, -5.493533437597862e-30, 4.864972071051626e-30, 0.0, 0.0, 0.0, 9.999995961458226e-10]
---
header: 
  seq: 34
  stamp: 
    secs: 1509918538
    nsecs: 621387720
  frame_id: amiro1/odom
child_frame_id: amiro1/base_link
pose: 
  pose: 
    position: 
      x: -0.0222886075325
      y: -0.0329789578373
      z: 0.0
    orientation: 
      x: 0.0
      y: 0.0
      z: -0.0202368888143
      w: 0.999795213197
  covariance: [0.014301831205539342, -2.3226343263143095e-19, 0.0, 0.0, 0.0, -1.3640054743669328e-11, -2.322400547043639e-19, 0.014301831205539342, 0.0, 0.0, 0.0, 1.4682635619012964e-11, 0.0, 0.0, 9.995037434452533e-07, 1.6545873227812058e-22, -1.6396737599243725e-22, 0.0, 0.0, 0.0, 1.6545873227812053e-22, 9.99008469097897e-07, 1.0043423733425624e-34, 0.0, 0.0, 0.0, -1.6396737599243725e-22, 9.4039548065783e-36, 9.99008469097897e-07, 0.0, -1.3640054743669327e-11, 1.4682635619012964e-11, 0.0, 0.0, 0.0, 0.004071053007485193]
twist: 
  twist: 
    linear: 
      x: 9.28339674055e-09
      y: 8.54025493406e-09
      z: 0.0
    angular: 
      x: 0.0
      y: 0.0
      z: -3.56880346146e-24
  covariance: [0.000852925781748646, -4.8112081579804094e-26, 0.0, 0.0, 0.0, -3.372206522002537e-24, -5.808932408511905e-26, 0.000852925781748646, 0.0, 0.0, 0.0, 3.09117794401532e-24, 0.0, 0.0, 9.99255983829757e-07, 4.178032096364752e-31, -3.8179809984966956e-31, 0.0, 0.0, 0.0, 4.178032096364754e-31, 9.970370786438676e-07, -1.8535177982202699e-35, 0.0, 0.0, 0.0, -3.8179809984966973e-31, 1.853517797451137e-35, 9.970370786438676e-07, 0.0, -3.372206522002537e-24, 3.091177944015322e-24, 0.0, 0.0, 0.0, 0.0006710300908809436]
---
header: 
  seq: 35
  stamp: 
    secs: 1509918538
    nsecs: 688899755
  frame_id: amiro1/odom
child_frame_id: amiro1/base_link
pose: 
  pose: 
    position: 
      x: -0.0222368294172
      y: -0.032930814784
      z: 0.0
    orientation: 
      x: 0.0
      y: 0.0
      z: -0.0202368888143
      w: 0.999795213197
  covariance: [0.015025302836247152, -1.8204399343083235e-19, 0.0, 0.0, 0.0, -8.50357583633122e-12, -1.8202726952824503e-19, 0.015025302836247152, 0.0, 0.0, 0.0, 9.370747688947157e-12, 0.0, 0.0, 9.997532525133399e-07, 1.4063701405327225e-22, -1.5287434412483482e-22, 0.0, 0.0, 0.0, 1.4063701405327223e-22, 9.995067488125124e-07, 1.013393679843894e-34, 0.0, 0.0, 0.0, -1.5287434412483487e-22, 7.291591458150649e-35, 9.995067488125124e-07, 0.0, -8.503575836331216e-12, 9.370747688947157e-12, 0.0, 0.0, 0.0, 0.004482707969869958]
twist: 
  twist: 
    linear: 
      x: 2.21745438228e-07
      y: 2.21108188308e-07
      z: 0.0
    angular: 
      x: 0.0
      y: 0.0
      z: 9.80934714691e-18
  covariance: [0.002656359329080369, -6.458032506676657e-25, 0.0, 0.0, 0.0, -3.224176846463088e-17, -9.394004600560768e-25, 0.002656359329080369, 0.0, 0.0, 0.0, 3.2532041446268665e-17, 0.0, 0.0, 9.996299702234054e-07, 3.638184178945937e-31, -3.6468689690728437e-31, 0.0, 0.0, 0.0, 3.6381841789459365e-31, 9.98523151204029e-07, -9.224974878968073e-36, 0.0, 0.0, 0.0, -3.646868969072845e-31, 9.224974878969049e-36, 9.98523151204029e-07, 0.0, -3.2241768464630883e-17, 3.2532041446268684e-17, 0.0, 0.0, 0.0, 0.002021157565270684]
---
header: 
  seq: 36
  stamp: 
    secs: 1509918538
    nsecs: 750482798
  frame_id: amiro1/odom
child_frame_id: amiro1/base_link
pose: 
  pose: 
    position: 
      x: -0.0221919453455
      y: -0.0328890816609
      z: 0.0
    orientation: 
      x: 0.0
      y: 0.0
      z: -0.0202368888143
      w: 0.999795213197
  covariance: [0.015329084503659461, -2.7504540331278736e-19, 0.0, 0.0, 0.0, -1.6376592371914378e-11, -2.750681516436625e-19, 0.015329084503659461, 0.0, 0.0, 0.0, 1.791321812221469e-11, 0.0, 0.0, 9.995414733914994e-07, 1.336176700307528e-22, -1.3881532716262746e-22, 0.0, 0.0, 0.0, 1.3361767003075284e-22, 9.990837867180063e-07, -5.390205835808583e-33, 0.0, 0.0, 0.0, -1.388153271626274e-22, 5.471220906467255e-33, 9.990837867180063e-07, 0.0, -1.637659237191437e-11, 1.791321812221469e-11, 0.0, 0.0, 0.0, 0.0044988308391279595]
twist: 
  twist: 
    linear: 
      x: 2.56089853578e-08
      y: 2.49877472242e-08
      z: 0.0
    angular: 
      x: 0.0
      y: 0.0
      z: 8.17578883311e-24
  covariance: [0.0009250559580272896, -5.415060776546645e-26, 0.0, 0.0, 0.0, -5.5452110649575604e-24, -6.924219275922385e-26, 0.0009250559580272896, 0.0, 0.0, 0.0, 5.527847133945726e-24, 0.0, 0.0, 9.9931252525882e-07, 3.426616551332334e-31, -3.2829916896726493e-31, 0.0, 0.0, 0.0, 3.426616551332336e-31, 9.97261367289094e-07, -8.954427861088308e-35, 0.0, 0.0, 0.0, -3.282991689672649e-31, 8.954427861088285e-35, 9.97261367289094e-07, 0.0, -5.545211064957563e-24, 5.5278471339457286e-24, 0.0, 0.0, 0.0, 0.0007263002858882759]
---
header: 
  seq: 37
  stamp: 
    secs: 1509918538
    nsecs: 779969454
  frame_id: amiro1/odom
child_frame_id: amiro1/base_link
pose: 
  pose: 
    position: 
      x: -0.0222640518076
      y: -0.0329495143118
      z: 0.0
    orientation: 
      x: 0.0
      y: 0.0
      z: -0.0202368888143
      w: 0.999795213197
  covariance: [0.014386826246970689, -2.099891227367768e-19, 0.0, 0.0, 0.0, -1.096694151824406e-11, -2.1000064227690258e-19, 0.014386826246970689, 0.0, 0.0, 0.0, 1.2037464117449179e-11, 0.0, 0.0, 9.994354109510097e-07, 6.590811733295291e-22, -6.754671159910697e-22, 0.0, 0.0, 0.0, 6.590811733295294e-22, 9.988720951802048e-07, 7.731931641968678e-34, 0.0, 0.0, 0.0, -6.754671159910699e-22, 8.037560173182473e-34, 9.988720951802048e-07, 0.0, -1.0966941518244057e-11, 1.2037464117449179e-11, 0.0, 0.0, 0.0, 0.003853212893545198]
twist: 
  twist: 
    linear: 
      x: -8.95339258809e-08
      y: -7.83535528955e-08
      z: 0.0
    angular: 
      x: 0.0
      y: 0.0
      z: -8.93428237925e-18
  covariance: [0.0017017567495587708, -3.3147612730187906e-25, 0.0, 0.0, 0.0, -1.0117284768978494e-17, -3.294171602722357e-25, 0.0017017567495587708, 0.0, 0.0, 0.0, 1.0216356698221546e-17, 0.0, 0.0, 9.991535942296786e-07, 1.6905432840031303e-30, -1.597791341565068e-30, 0.0, 0.0, 0.0, 1.6905432840031307e-30, 9.966314521172898e-07, -8.177158435553743e-36, 0.0, 0.0, 0.0, -1.5977913415650683e-30, 8.177158435553743e-36, 9.966314521172898e-07, 0.0, -1.0117284768978491e-17, 1.0216356698221546e-17, 0.0, 0.0, 0.0, 0.0013160052171969998]
---
header: 
  seq: 38
  stamp: 
    secs: 1509918538
    nsecs: 837854385
  frame_id: amiro1/odom
child_frame_id: amiro1/base_link
pose: 
  pose: 
    position: 
      x: -0.0223230024135
      y: -0.0329989372312
      z: 0.0
    orientation: 
      x: 0.0
      y: 0.0
      z: -0.0202368888143
      w: 0.999795213197
  covariance: [0.015095652010696533, -4.520813630702512e-19, 0.0, 0.0, 0.0, 3.0660011771648037e-11, -4.520574945752617e-19, 0.015095652010696533, 0.0, 0.0, 0.0, -3.8016469253277894e-11, 0.0, 0.0, 9.993866245366e-07, -6.969442469182837e-21, 7.776430032564473e-21, 0.0, 0.0, 0.0, -6.969442469182839e-21, 9.98774751475663e-07, 8.837952857381278e-32, 0.0, 0.0, 0.0, 7.776430032564473e-21, 8.833883221281086e-32, 9.98774751475663e-07, 0.0, 3.066001177164805e-11, -3.801646925327789e-11, 0.0, 0.0, 0.0, 0.0052591591576601985]
twist: 
  twist: 
    linear: 
      x: -1.16138175423e-13
      y: -1.0389830396e-13
      z: 0.0
    angular: 
      x: 0.0
      y: 0.0
      z: -1.66468901118e-23
  covariance: [9.999996965447718e-10, -7.843122046121774e-38, 0.0, 0.0, 0.0, -1.0093479010072698e-29, -1.3706069524548715e-37, 9.999996965447718e-10, 0.0, 0.0, 0.0, 1.020177870115382e-29, 0.0, 0.0, 9.990805006269762e-07, -1.7905627481743662e-29, 1.8421333546950337e-29, 0.0, 0.0, 0.0, -1.790562748174367e-29, 9.963421396888906e-07, 3.3370705440651425e-35, 0.0, 0.0, 0.0, 1.8421333546950334e-29, -3.3370705440650976e-35, 9.963421396888906e-07, 0.0, -1.0093479010072691e-29, 1.020177870115382e-29, 0.0, 0.0, 0.0, 9.999995957181177e-10]
---
header: 
  seq: 39
  stamp: 
    secs: 1509918538
    nsecs: 881024599
  frame_id: amiro1/odom
child_frame_id: amiro1/base_link
pose: 
  pose: 
    position: 
      x: -0.0222672501734
      y: -0.0329488658703
      z: 0.0
    orientation: 
      x: 0.0
      y: 0.0
      z: -0.0202368888143
      w: 0.999795213197
  covariance: [0.014715275112770612, -2.768955270989293e-19, 0.0, 0.0, 0.0, 1.430744244407132e-11, -2.7687575956298447e-19, 0.014715275112770612, 0.0, 0.0, 0.0, -1.787425721263959e-11, 0.0, 0.0, 9.996142293912193e-07, 4.177945225001878e-23, -3.262767997711338e-23, 0.0, 0.0, 0.0, 4.177945225001875e-23, 9.992290536012434e-07, -1.6127782493281785e-35, 0.0, 0.0, 0.0, -3.2627679977113373e-23, 2.3321807920314184e-35, 9.992290536012434e-07, 0.0, 1.4307442444071332e-11, -1.7874257212639585e-11, 0.0, 0.0, 0.0, 0.004397561993396378]
twist: 
  twist: 
    linear: 
      x: 1.52177394901e-08
      y: 1.63820057633e-08
      z: 0.0
    angular: 
      x: 0.0
      y: 0.0
      z: -2.74577545736e-23
  covariance: [0.0011042664253109592, -6.974816800006354e-26, 0.0, 0.0, 0.0, -5.867704666081682e-24, -1.004131934072911e-25, 0.0011042664253109592, 0.0, 0.0, 0.0, 5.688110131538418e-24, 0.0, 0.0, 9.994215672639205e-07, 1.0621556356055445e-31, -7.622143149986554e-32, 0.0, 0.0, 0.0, 1.0621556356055445e-31, 9.976942506109599e-07, -3.2112044102627325e-35, 0.0, 0.0, 0.0, -7.622143149986555e-32, 3.2112044102627325e-35, 9.976942506109599e-07, 0.0, -5.867704666081683e-24, 5.688110131538426e-24, 0.0, 0.0, 0.0, 0.0008634052739864118]
---
header: 
  seq: 40
  stamp: 
    secs: 1509918538
    nsecs: 944144964
  frame_id: amiro1/odom
child_frame_id: amiro1/base_link
pose: 
  pose: 
    position: 
      x: -0.0222182460536
      y: -0.0329048549186
      z: 0.0
    orientation: 
      x: 0.0
      y: 0.0
      z: -0.0202368888143
      w: 0.999795213197
  covariance: [0.01516544885316954, -1.6598029975394073e-19, 0.0, 0.0, 0.0, 3.1428805728322156e-12, -1.6598506226356802e-19, 0.01516544885316954, 0.0, 0.0, 0.0, -4.780670293101833e-12, 0.0, 0.0, 9.997360938275805e-07, 2.4900755091855646e-22, -2.313105860711072e-22, 0.0, 0.0, 0.0, 2.4900755091855636e-22, 9.994724664832748e-07, 2.436799789254602e-34, 0.0, 0.0, 0.0, -2.3131058607110712e-22, 1.928516031959045e-34, 9.994724664832748e-07, 0.0, 3.14288057283222e-12, -4.78067029310183e-12, 0.0, 0.0, 0.0, 0.0045019370382153295]
twist: 
  twist: 
    linear: 
      x: 2.53208383241e-07
      y: 2.50472144233e-07
      z: 0.0
    angular: 
      x: 0.0
      y: 0.0
      z: 3.04294588031e-17
  covariance: [0.002810541551776615, -8.370853546510533e-25, 0.0, 0.0, 0.0, 1.5760907759482556e-17, -1.0197652385188995e-24, 0.002810541551776615, 0.0, 0.0, 0.0, -2.223401937734554e-17, 0.0, 0.0, 9.996042453394092e-07, 6.408056767258826e-31, -5.486706122153049e-31, 0.0, 0.0, 0.0, 6.4080567672588275e-31, 9.984207235026767e-07, 1.2139733012866223e-35, 0.0, 0.0, 0.0, -5.48670612215305e-31, -1.2139733012866223e-35, 9.984207235026767e-07, 0.0, 1.5760907759482578e-17, -2.2234019377345527e-17, 0.0, 0.0, 0.0, 0.002125649279617241]
---
header: 
  seq: 41
  stamp: 
    secs: 1509918538
    nsecs: 962853670
  frame_id: amiro1/odom
child_frame_id: amiro1/base_link
pose: 
  pose: 
    position: 
      x: -0.0222182513451
      y: -0.0329048597583
      z: 0.0
    orientation: 
      x: 0.0
      y: 0.0
      z: -0.0202368888143
      w: 0.999795213197
  covariance: [0.01609984609730611, -2.3279664490741294e-19, 0.0, 0.0, 0.0, -1.7608176200141524e-11, -2.3289063209282393e-19, 0.01609984609730611, 0.0, 0.0, 0.0, 1.7947460374789824e-11, 0.0, 0.0, 9.991107336192408e-07, 7.59028537926063e-21, -7.666047136247435e-21, 0.0, 0.0, 0.0, 7.590285379260629e-21, 9.982246240995533e-07, 6.54406379543169e-32, 0.0, 0.0, 0.0, -7.666047136247438e-21, 6.54254936523183e-32, 9.982246240995533e-07, 0.0, -1.7608176200141524e-11, 1.794746037478983e-11, 0.0, 0.0, 0.0, 0.005624379419677168]
twist: 
  twist: 
    linear: 
      x: 7.97392337858e-14
      y: 7.90212486374e-14
      z: 0.0
    angular: 
      x: 0.0
      y: 0.0
      z: 1.21728473071e-23
  covariance: [9.99999700394077e-10, -8.969798180786963e-38, 0.0, 0.0, 0.0, 1.96048434557896e-30, -1.1734340485668532e-37, 9.99999700394077e-10, 0.0, 0.0, 0.0, -2.7698474724717e-30, 0.0, 0.0, 9.98667285381081e-07, 1.940930028100264e-29, -1.8077556735104106e-29, 0.0, 0.0, 0.0, 1.9409300281002628e-29, 9.947113865928398e-07, -4.505911548936966e-35, 0.0, 0.0, 0.0, -1.8077556735104097e-29, 4.5059115489366913e-35, 9.947113865928398e-07, 0.0, 1.9604843455789622e-30, -2.7698474724716993e-30, 0.0, 0.0, 0.0, 9.999995999719016e-10]
---
header: 
  seq: 42
  stamp: 
    secs: 1509918539
    nsecs:  43736696
  frame_id: amiro1/odom
child_frame_id: amiro1/base_link
pose: 
  pose: 
    position: 
      x: -0.0222978759119
      y: -0.0329726443705
      z: 0.0
    orientation: 
      x: 0.0
      y: 0.0
      z: -0.0202368888143
      w: 0.999795213197
  covariance: [0.01676698367569237, -1.931212315564679e-19, 0.0, 0.0, 0.0, -1.1274335959311166e-11, -1.931863529364025e-19, 0.01676698367569237, 0.0, 0.0, 0.0, 1.1608479609148553e-11, 0.0, 0.0, 9.997940262343303e-07, 1.5882029746547675e-22, -1.5344731012075708e-22, 0.0, 0.0, 0.0, 1.5882029746547672e-22, 9.995882224213396e-07, 1.1881896898111682e-34, 0.0, 0.0, 0.0, -1.5344731012075704e-22, 1.1784330866993432e-34, 9.995882224213396e-07, 0.0, -1.1274335959311162e-11, 1.1608479609148553e-11, 0.0, 0.0, 0.0, 0.005116558231834269]
twist: 
  twist: 
    linear: 
      x: 8.01195660489e-09
      y: 1.23911870371e-08
      z: 0.0
    angular: 
      x: 0.0
      y: 0.0
      z: -1.81973942248e-24
  covariance: [0.0021122167280766143, -2.3677658739365494e-25, 0.0, 0.0, 0.0, -2.934837747378026e-25, -3.2398637125873577e-25, 0.0021122167280766143, 0.0, 0.0, 0.0, -1.738691580932654e-24, 0.0, 0.0, 9.996911031108168e-07, 4.074366804904716e-31, -3.6295108107474853e-31, 0.0, 0.0, 0.0, 4.074366804904715e-31, 9.98766688203917e-07, 1.58536864735335e-36, 0.0, 0.0, 0.0, -3.629510810747485e-31, -1.58536864735335e-36, 9.987666882039168e-07, 0.0, -2.9348377473779527e-25, -1.7386915809326498e-24, 0.0, 0.0, 0.0, 0.001617661522460537]
---
header: 
  seq: 43
  stamp: 
    secs: 1509918539
    nsecs:  94448566
  frame_id: amiro1/odom
child_frame_id: amiro1/base_link
pose: 
  pose: 
    position: 
      x: -0.0223691228132
      y: -0.0330465745988
      z: 0.0
    orientation: 
      x: 0.0
      y: 0.0
      z: -0.0202368888143
      w: 0.999795213197
  covariance: [0.016180580474552557, -1.3813288311360182e-19, 0.0, 0.0, 0.0, -6.803022912845325e-12, -1.3814590785326637e-19, 0.016180580474552557, 0.0, 0.0, 0.0, 6.486341650107955e-12, 0.0, 0.0, 9.97577433357987e-07, 3.916251653716394e-23, -2.53224128433223e-23, 0.0, 0.0, 0.0, 3.9162516537163945e-23, 9.95178216142221e-07, 1.940976272077761e-34, 0.0, 0.0, 0.0, -2.53224128433223e-23, -1.940976272077761e-34, 9.95178216142221e-07, 0.0, -6.8030229128453236e-12, 6.486341650107953e-12, 0.0, 0.0, 0.0, 0.004493502733033608]
twist: 
  twist: 
    linear: 
      x: -1.91302677307e-09
      y: -1.88617720779e-09
      z: 0.0
    angular: 
      x: 0.0
      y: 0.0
      z: -8.58344151452e-24
  covariance: [0.00017182276276432243, -1.3222158355725224e-27, 0.0, 0.0, 0.0, -3.269488210433711e-25, -2.1960626608058556e-27, 0.00017182276276432243, 0.0, 0.0, 0.0, 2.838585460140426e-25, 0.0, 0.0, 9.9637492804973e-07, 9.639396039592574e-32, -5.693345489620225e-32, 0.0, 0.0, 0.0, 9.639396039592572e-32, 9.858079551548661e-07, 2.3285831613090835e-34, 0.0, 0.0, 0.0, -5.693345489620226e-32, -2.3288547550536747e-34, 9.858079551548661e-07, 0.0, -3.26948821043371e-25, 2.8385854601404263e-25, 0.0, 0.0, 0.0, 0.0001369295583492085]
---
header: 
  seq: 44
  stamp: 
    secs: 1509918539
    nsecs: 126042843
  frame_id: amiro1/odom
child_frame_id: amiro1/base_link
pose: 
  pose: 
    position: 
      x: -0.0223050074872
      y: -0.0329880532038
      z: 0.0
    orientation: 
      x: 0.0
      y: 0.0
      z: -0.0202368888143
      w: 0.999795213197
  covariance: [0.015081953438623424, -9.637812953457992e-20, 0.0, 0.0, 0.0, -3.085209667479461e-12, -9.638767331238969e-20, 0.015081953438623424, 0.0, 0.0, 0.0, 2.877198451519612e-12, 0.0, 0.0, 9.994730338669698e-07, -1.0881468723516935e-22, 1.1036437262894432e-22, 0.0, 0.0, 0.0, -1.0881468723516933e-22, 9.989471738721638e-07, 7.191768477878821e-33, 0.0, 0.0, 0.0, 1.1036437262894436e-22, -7.146253336614982e-33, 9.989471738721638e-07, 0.0, -3.0852096674794602e-12, 2.8771984515196106e-12, 0.0, 0.0, 0.0, 0.0038984566522644085]
twist: 
  twist: 
    linear: 
      x: 2.11798748635e-08
      y: 2.10064001815e-08
      z: 0.0
    angular: 
      x: 0.0
      y: 0.0
      z: 1.95843346171e-19
  covariance: [0.0009819260904767536, -4.847477375943121e-26, 0.0, 0.0, 0.0, -2.647408389478165e-19, -6.202401993339566e-26, 0.0009819260904767536, 0.0, 0.0, 0.0, 2.2870300720889547e-19, 0.0, 0.0, 9.992099660683135e-07, -2.7196788138488234e-31, 2.543782582876398e-31, 0.0, 0.0, 0.0, -2.719678813848824e-31, 9.96854639404772e-07, -2.8528823736420987e-35, 0.0, 0.0, 0.0, 2.5437825828763976e-31, 2.8528823467722006e-35, 9.96854639404772e-07, 0.0, -2.647408389478164e-19, 2.287030072088954e-19, 0.0, 0.0, 0.0, 0.0007688139449432692]
---
header: 
  seq: 45
  stamp: 
    secs: 1509918539
    nsecs: 194463015
  frame_id: amiro1/odom
child_frame_id: amiro1/base_link
pose: 
  pose: 
    position: 
      x: -0.0223656277619
      y: -0.0330382010692
      z: 0.0
    orientation: 
      x: 0.0
      y: 0.0
      z: -0.0202368888143
      w: 0.999795213197
  covariance: [0.015618416269133703, -7.902706876269109e-20, 0.0, 0.0, 0.0, -4.219452026156984e-12, -7.906476306118929e-20, 0.015618416269133703, 0.0, 0.0, 0.0, 4.376741741825617e-12, 0.0, 0.0, 9.997565259837135e-07, 1.875330204302907e-22, -1.888127755076705e-22, 0.0, 0.0, 0.0, 1.8753302043029073e-22, 9.995132893327967e-07, 6.264138865870921e-33, 0.0, 0.0, 0.0, -1.888127755076705e-22, -5.973274543703454e-33, 9.995132893327967e-07, 0.0, -4.2194520261569814e-12, 4.376741741825616e-12, 0.0, 0.0, 0.0, 0.004446797531287407]
twist: 
  twist: 
    linear: 
      x: -2.49236446922e-07
      y: -2.21313815501e-07
      z: 0.0
    angular: 
      x: 0.0
      y: 0.0
      z: -1.09885712804e-17
  covariance: [0.0028346666306034306, -1.1515408757754443e-24, 0.0, 0.0, 0.0, -2.390212148311067e-17, 2.9029286012921825e-25, 0.0028346666306034306, 0.0, 0.0, 0.0, 2.2164777956621253e-17, 0.0, 0.0, 9.9963487802079e-07, 4.83486605313703e-31, -4.489014624982423e-31, 0.0, 0.0, 0.0, 4.834866053137031e-31, 9.985426958841351e-07, -2.7336959627062067e-35, 0.0, 0.0, 0.0, -4.489014624982422e-31, 2.7336959627056593e-35, 9.985426958841351e-07, 0.0, -2.3902121483110657e-17, 2.2164777956621228e-17, 0.0, 0.0, 0.0, 0.002137047913575547]
---
header: 
  seq: 46
  stamp: 
    secs: 1509918539
    nsecs: 229923487
  frame_id: amiro1/odom
child_frame_id: amiro1/base_link
pose: 
  pose: 
    position: 
      x: -0.0223031816962
      y: -0.0329819728669
      z: 0.0
    orientation: 
      x: 0.0
      y: 0.0
      z: -0.0202368888143
      w: 0.999795213197
  covariance: [0.01481428198378889, -1.0269767995453391e-19, 0.0, 0.0, 0.0, 9.206490592212246e-12, -1.0266461819180837e-19, 0.01481428198378889, 0.0, 0.0, 0.0, -1.1658284776637273e-11, 0.0, 0.0, 9.986640157967451e-07, -6.943574662348975e-23, 7.899538356748437e-23, 0.0, 0.0, 0.0, -6.943574662348975e-23, 9.973351448344583e-07, 2.670723165068237e-35, 0.0, 0.0, 0.0, 7.899538356748439e-23, -1.8055593228630336e-35, 9.973351448344583e-07, 0.0, 9.206490592212246e-12, -1.1658284776637277e-11, 0.0, 0.0, 0.0, 0.003966640793756792]
twist: 
  twist: 
    linear: 
      x: 4.65254445643e-10
      y: 8.02720457209e-10
      z: 0.0
    angular: 
      x: 0.0
      y: 0.0
      z: -5.25133928361e-24
  covariance: [0.0003132744039975333, -3.445881485920428e-27, 0.0, 0.0, 0.0, -8.401272111497984e-25, -6.871026907225722e-27, 0.0003132744039975333, 0.0, 0.0, 0.0, 7.70285004601833e-25, 0.0, 0.0, 9.979986951958036e-07, -1.765930003780933e-31, 1.852153507949666e-31, 0.0, 0.0, 0.0, -1.7659300037809322e-31, 9.92089510553273e-07, -1.8157033070171227e-34, 0.0, 0.0, 0.0, 1.852153507949666e-31, 1.8157033070171227e-34, 9.92089510553273e-07, 0.0, -8.401272111497982e-25, 7.702850046018331e-25, 0.0, 0.0, 0.0, 0.0002488384710079157]
---
header: 
  seq: 47
  stamp: 
    secs: 1509918539
    nsecs: 273003340
  frame_id: amiro1/odom
child_frame_id: amiro1/base_link
pose: 
  pose: 
    position: 
      x: -0.0223537051631
      y: -0.0330231798198
      z: 0.0
    orientation: 
      x: 0.0
      y: 0.0
      z: -0.0202368888143
      w: 0.999795213197
  covariance: [0.014507348040064386, -6.943773863824276e-20, 0.0, 0.0, 0.0, 4.566472352522448e-12, -6.941355520723134e-20, 0.014507348040064386, 0.0, 0.0, 0.0, -5.901770905719322e-12, 0.0, 0.0, 9.996134207480952e-07, 2.8130179083101203e-23, -1.630317873080045e-23, 0.0, 0.0, 0.0, 2.813017908310121e-23, 9.9922743816036e-07, 3.4042316399813446e-35, 0.0, 0.0, 0.0, -1.6303178730800454e-23, -3.169132769816887e-35, 9.9922743816036e-07, 0.0, 4.566472352522446e-12, -5.901770905719324e-12, 0.0, 0.0, 0.0, 0.003958395259473108]
twist: 
  twist: 
    linear: 
      x: -5.26164500429e-08
      y: -4.48396948051e-08
      z: 0.0
    angular: 
      x: 0.0
      y: 0.0
      z: 1.7921739173e-18
  covariance: [0.0014326111699096515, -9.275404384405253e-26, 0.0, 0.0, 0.0, 1.0772438109693046e-18, -1.3714418474362495e-25, 0.0014326111699096515, 0.0, 0.0, 0.0, -1.3384304811344403e-18, 0.0, 0.0, 9.994203550318672e-07, 7.029897053216694e-32, -3.702627239181744e-32, 0.0, 0.0, 0.0, 7.029897053216696e-32, 9.976894138716435e-07, 1.274981266597722e-35, 0.0, 0.0, 0.0, -3.702627239181743e-32, -1.274981266597723e-35, 9.976894138716437e-07, 0.0, 1.077243810969305e-18, -1.338430481134441e-18, 0.0, 0.0, 0.0, 0.0011104285893133376]
---
header: 
  seq: 48
  stamp: 
    secs: 1509918539
    nsecs: 338079214
  frame_id: amiro1/odom
child_frame_id: amiro1/base_link
pose: 
  pose: 
    position: 
      x: -0.0224028207977
      y: -0.0330646159037
      z: 0.0
    orientation: 
      x: 0.0
      y: 0.0
      z: -0.0202368888143
      w: 0.999795213197
  covariance: [0.015363675204784714, -3.1689639057929285e-19, 0.0, 0.0, 0.0, 2.879532137960675e-11, -3.1681847613821404e-19, 0.015363675204784714, 0.0, 0.0, 0.0, -3.53311363867368e-11, 0.0, 0.0, 9.991876964568486e-07, -7.677954666576307e-21, 8.548412742568445e-21, 0.0, 0.0, 0.0, -7.677954666576305e-21, 9.983780270536691e-07, 8.076962161236755e-32, 0.0, 0.0, 0.0, 8.548412742568442e-21, 8.083092872583015e-32, 9.983780270536691e-07, 0.0, 2.8795321379606745e-11, -3.5331136386736785e-11, 0.0, 0.0, 0.0, 0.00521815456218418]
twist: 
  twist: 
    linear: 
      x: -1.00246293615e-13
      y: -8.9949785937e-14
      z: 0.0
    angular: 
      x: 0.0
      y: 0.0
      z: -6.54544560836e-25
  covariance: [9.99999690164887e-10, -3.0955719828500603e-38, 0.0, 0.0, 0.0, 4.405016056228009e-30, -1.485908529071145e-37, 9.99999690164887e-10, 0.0, 0.0, 0.0, -5.3002453467648525e-30, 0.0, 0.0, 9.987825333810781e-07, -1.9706778710337872e-29, 2.0230659618599918e-29, 0.0, 0.0, 0.0, -1.9706778710337856e-29, 9.951653975871314e-07, 3.177036073981975e-35, 0.0, 0.0, 0.0, 2.0230659618599913e-29, -3.1770724493744084e-35, 9.951653975871314e-07, 0.0, 4.405016056228013e-30, -5.300245346764855e-30, 0.0, 0.0, 0.0, 9.999995853648092e-10]
---
header: 
  seq: 49
  stamp: 
    secs: 1509918539
    nsecs: 377988815
  frame_id: amiro1/odom
child_frame_id: amiro1/base_link
pose: 
  pose: 
    position: 
      x: -0.0224457656245
      y: -0.0331008032035
      z: 0.0
    orientation: 
      x: 0.0
      y: 0.0
      z: -0.0202368888143
      w: 0.999795213197
  covariance: [0.01479157595466345, -1.993472445285574e-19, 0.0, 0.0, 0.0, 1.4672433130747937e-11, -1.9928887316691958e-19, 0.01479157595466345, 0.0, 0.0, 0.0, -1.8054131505961758e-11, 0.0, 0.0, 9.99582738187745e-07, -1.0731072060122823e-22, 1.2804079913508475e-22, 0.0, 0.0, 0.0, -1.0731072060122828e-22, 9.991661719255693e-07, 9.025257546517392e-33, 0.0, 0.0, 0.0, 1.2804079913508477e-22, -8.959241783775212e-33, 9.991661719255693e-07, 0.0, 1.4672433130747934e-11, -1.8054131505961754e-11, 0.0, 0.0, 0.0, 0.004322288687087268]
twist: 
  twist: 
    linear: 
      x: -2.69819067391e-08
      y: -2.32623525233e-08
      z: 0.0
    angular: 
      x: 0.0
      y: 0.0
      z: -1.28260369305e-23
  covariance: [0.0010209983685699384, -2.6148482007318634e-26, 0.0, 0.0, 0.0, 3.914271696617068e-24, -7.167647321169139e-26, 0.0010209983685699384, 0.0, 0.0, 0.0, -4.773549757373089e-24, 0.0, 0.0, 9.99374368274359e-07, -2.7651047801561098e-31, 3.0403176222523707e-31, 0.0, 0.0, 0.0, -2.76510478015611e-31, 9.975068012977003e-07, -3.048608697854785e-36, 0.0, 0.0, 0.0, 3.04031762225237e-31, 3.0486086955940963e-36, 9.975068012977003e-07, 0.0, 3.914271696617071e-24, -4.7735497573730905e-24, 0.0, 0.0, 0.0, 0.0007981930242305422]
---
header: 
  seq: 50
  stamp: 
    secs: 1509918539
    nsecs: 444355488
  frame_id: amiro1/odom
child_frame_id: amiro1/base_link
pose: 
  pose: 
    position: 
      x: -0.0224837098632
      y: -0.0331327586179
      z: 0.0
    orientation: 
      x: 0.0
      y: 0.0
      z: -0.0202368888143
      w: 0.999795213197
  covariance: [0.01533702622427945, -2.0799215242481486e-19, 0.0, 0.0, 0.0, 1.2166804966606585e-11, -2.0795420630630338e-19, 0.01533702622427945, 0.0, 0.0, 0.0, -1.512751636823391e-11, 0.0, 0.0, 9.99748996257283e-07, -3.558027201290262e-22, 4.126942179104801e-22, 0.0, 0.0, 0.0, -3.558027201290261e-22, 9.994982447922023e-07, 5.663296683391617e-34, 0.0, 0.0, 0.0, 4.1269421791048e-22, 6.03686878808294e-34, 9.994982447922023e-07, 0.0, 1.2166804966606584e-11, -1.5127516368233904e-11, 0.0, 0.0, 0.0, 0.004537848662390273]
twist: 
  twist: 
    linear: 
      x: -2.37376666656e-07
      y: -2.13209881593e-07
      z: 0.0
    angular: 
      x: 0.0
      y: 0.0
      z: -1.36749631023e-17
  covariance: [0.0028235304302562047, -6.008601680642633e-25, 0.0, 0.0, 0.0, 6.127915891543395e-17, -9.1260876120728e-26, 0.0028235304302562047, 0.0, 0.0, 0.0, -7.029103750865404e-17, 0.0, 0.0, 9.996235890234593e-07, -9.23874619632214e-31, 9.87782633259959e-31, 0.0, 0.0, 0.0, -9.238746196322142e-31, 9.984977411203858e-07, -2.971112635762891e-35, 0.0, 0.0, 0.0, 9.877826332599593e-31, 2.971112635762891e-35, 9.984977411203858e-07, 0.0, 6.127915891543395e-17, -7.029103750865402e-17, 0.0, 0.0, 0.0, 0.0021253731963691122]
---
header: 
  seq: 51
  stamp: 
    secs: 1509918539
    nsecs: 471898556
  frame_id: amiro1/odom
child_frame_id: amiro1/base_link
pose: 
  pose: 
    position: 
      x: -0.0224064383634
      y: -0.0330648661717
      z: 0.0
    orientation: 
      x: 0.0
      y: 0.0
      z: -0.0202368888143
      w: 0.999795213197
  covariance: [0.014319874966966888, -2.5839756586074423e-19, 0.0, 0.0, 0.0, 1.6344693142893654e-11, -2.583957636769143e-19, 0.014319874966966888, 0.0, 0.0, 0.0, -1.998787298589065e-11, 0.0, 0.0, 9.979661468840515e-07, -1.9942257286836724e-22, 2.2796850111093905e-22, 0.0, 0.0, 0.0, -1.9942257286836724e-22, 9.9594875241458e-07, -6.018531076210112e-35, 0.0, 0.0, 0.0, 2.279685011109391e-22, 1.0682892660272949e-34, 9.959487524145802e-07, 0.0, 1.634469314289366e-11, -1.9987872985890648e-11, 0.0, 0.0, 0.0, 0.0038234987236896037]
twist: 
  twist: 
    linear: 
      x: -3.58591834812e-09
      y: -2.88612212817e-09
      z: 0.0
    angular: 
      x: 0.0
      y: 0.0
      z: 9.53796879173e-24
  covariance: [0.00020502004144878677, -9.879162264264981e-28, 0.0, 0.0, 0.0, 1.1001703358612642e-24, -2.8040608848320347e-27, 0.00020502004144878677, 0.0, 0.0, 0.0, -1.267787759700042e-24, 0.0, 0.0, 9.969554061481405e-07, -5.0106594195220806e-31, 5.28019764846453e-31, 0.0, 0.0, 0.0, -5.010659419522079e-31, 9.880394158724453e-07, 3.3082855092782073e-34, 0.0, 0.0, 0.0, 5.280197648464529e-31, -3.3082855092782073e-34, 9.880394158724453e-07, 0.0, 1.1001703358612644e-24, -1.2677877597000424e-24, 0.0, 0.0, 0.0, 0.0001632271276241137]
---
header: 
  seq: 52
  stamp: 
    secs: 1509918539
    nsecs: 533278227
  frame_id: amiro1/odom
child_frame_id: amiro1/base_link
pose: 
  pose: 
    position: 
      x: -0.0223379532675
      y: -0.0330046932903
      z: 0.0
    orientation: 
      x: 0.0
      y: 0.0
      z: -0.0202368888143
      w: 0.999795213197
  covariance: [0.014813920408909121, -1.949424038802165e-19, 0.0, 0.0, 0.0, 9.44188214530768e-12, -1.9493520078996397e-19, 0.014813920408909121, 0.0, 0.0, 0.0, -1.1737074758604771e-11, 0.0, 0.0, 9.9972861352375e-07, -1.236535487030339e-22, 1.5363476224397847e-22, 0.0, 0.0, 0.0, -1.236535487030339e-22, 9.994575211379536e-07, 1.380735664475859e-34, 0.0, 0.0, 0.0, 1.5363476224397844e-22, 1.974830509381443e-36, 9.994575211379536e-07, 0.0, 9.441882145307686e-12, -1.1737074758604771e-11, 0.0, 0.0, 0.0, 0.00428796448321128]
twist: 
  twist: 
    linear: 
      x: 4.62514238509e-08
      y: 4.86070822644e-08
      z: 0.0
    angular: 
      x: 0.0
      y: 0.0
      z: 6.87573136947e-18
  covariance: [0.0018104443868240372, -9.39759146475331e-26, 0.0, 0.0, 0.0, 3.1650596285570363e-18, -2.0309928659541104e-25, 0.0018104443868240372, 0.0, 0.0, 0.0, -3.617611738774291e-18, 0.0, 0.0, 9.995930306550875e-07, -3.1504557797634725e-31, 3.6053174108835588e-31, 0.0, 0.0, 0.0, -3.150455779763473e-31, 9.98376055914641e-07, 3.7574004877865663e-36, 0.0, 0.0, 0.0, 3.605317410883561e-31, -3.7574004877865663e-36, 9.98376055914641e-07, 0.0, 3.1650596285570363e-18, -3.617611738774291e-18, 0.0, 0.0, 0.0, 0.001390814815970323]
---
header: 
  seq: 53
  stamp: 
    secs: 1509918539
    nsecs: 589569807
  frame_id: amiro1/odom
child_frame_id: amiro1/base_link
pose: 
  pose: 
    position: 
      x: -0.0222789239117
      y: -0.0329528280885
      z: 0.0
    orientation: 
      x: 0.0
      y: 0.0
      z: -0.0202368888143
      w: 0.999795213197
  covariance: [0.014988751598986308, -1.220543867729931e-19, 0.0, 0.0, 0.0, -9.240271764315078e-13, -1.2212650475741243e-19, 0.014988751598986308, 0.0, 0.0, 0.0, -2.146736126991252e-13, 0.0, 0.0, 9.856215345748915e-07, 4.992737787186914e-24, 1.0956921537591182e-23, 0.0, 0.0, 0.0, 4.992737787186916e-24, 9.720465609291614e-07, -4.9111213581874514e-33, 0.0, 0.0, 0.0, 1.0956921537591182e-23, 4.9111213581874514e-33, 9.720465609291616e-07, 0.0, -9.240271764315054e-13, -2.1467361269912412e-13, 0.0, 0.0, 0.0, 0.004339920971325041]
twist: 
  twist: 
    linear: 
      x: 3.24273481431e-10
      y: 3.77195485891e-10
      z: 0.0
    angular: 
      x: 0.0
      y: 0.0
      z: 2.95971299026e-23
  covariance: [2.8165313172952424e-05, -1.4875175211793527e-29, 0.0, 0.0, 0.0, 7.213444868484992e-26, -4.806436901345299e-29, 2.8165313172952424e-05, 0.0, 0.0, 0.0, -8.609055111066487e-26, 0.0, 0.0, 9.787379030298223e-07, 1.3268004900882797e-32, 1.9139966948755609e-32, 0.0, 0.0, 0.0, 1.3268004900882794e-32, 9.245642781467575e-07, -2.8276934334792866e-34, 0.0, 0.0, 0.0, 1.913996694875561e-32, 2.8276934334792866e-34, 9.245642781467575e-07, 0.0, 7.213444868484994e-26, -8.609055111066485e-26, 0.0, 0.0, 0.0, 2.251725060995055e-05]
---
header: 
  seq: 54
  stamp: 
    secs: 1509918539
    nsecs: 634029388
  frame_id: amiro1/odom
child_frame_id: amiro1/base_link
pose: 
  pose: 
    position: 
      x: -0.0222297613843
      y: -0.0329096321967
      z: 0.0
    orientation: 
      x: 0.0
      y: 0.0
      z: -0.0202368888143
      w: 0.999795213197
  covariance: [0.01468449164859872, -8.921405187729594e-20, 0.0, 0.0, 0.0, -1.1937105637287918e-12, -8.926492788466424e-20, 0.01468449164859872, 0.0, 0.0, 0.0, 5.732909137801813e-13, 0.0, 0.0, 9.996254067761979e-07, 9.480372527618164e-23, -8.149680173912786e-23, 0.0, 0.0, 0.0, 9.480372527618165e-23, 9.992513632554128e-07, 8.451804382412247e-35, 0.0, 0.0, 0.0, -8.149680173912785e-23, -4.3681370076556204e-35, 9.992513632554128e-07, 0.0, -1.193710563728791e-12, 5.732909137801818e-13, 0.0, 0.0, 0.0, 0.004120255024679072]
twist: 
  twist: 
    linear: 
      x: 2.94900291742e-08
      y: 3.08646202662e-08
      z: 0.0
    angular: 
      x: 0.0
      y: 0.0
      z: 7.17763676483e-19
  covariance: [0.0011708066844920563, -1.906697648698848e-26, 0.0, 0.0, 0.0, 2.8126153122579884e-20, -8.407143714907803e-26, 0.0011708066844920563, 0.0, 0.0, 0.0, -4.082604945328113e-20, 0.0, 0.0, 9.994383170645393e-07, 2.0328973565085233e-31, -1.609200662748842e-31, 0.0, 0.0, 0.0, 2.0328973565085233e-31, 9.977604605477435e-07, 3.1071981266058693e-35, 0.0, 0.0, 0.0, -1.6092006627488422e-31, -3.10719812660588e-35, 9.977604605477437e-07, 0.0, 2.81261531225799e-20, -4.082604945328111e-20, 0.0, 0.0, 0.0, 0.0009117088191823517]
---
header: 
  seq: 55
  stamp: 
    secs: 1509918539
    nsecs: 696838617
  frame_id: amiro1/odom
child_frame_id: amiro1/base_link
pose: 
  pose: 
    position: 
      x: -0.0224326107467
      y: -0.0330989800078
      z: 0.0
    orientation: 
      x: 0.0
      y: 0.0
      z: -0.0202368888143
      w: 0.999795213197
  covariance: [0.01513253539835516, -8.858853229456214e-20, 0.0, 0.0, 0.0, -6.446684777232322e-12, -8.858376608877446e-20, 0.01513253539835516, 0.0, 0.0, 0.0, 6.337312800632654e-12, 0.0, 0.0, 9.997347872159763e-07, 4.400414472989186e-22, -4.185716722988484e-22, 0.0, 0.0, 0.0, 4.400414472989187e-22, 9.994698560264442e-07, 1.519641480923827e-32, 0.0, 0.0, 0.0, -4.1857167229884856e-22, 6.590761726190402e-34, 9.994698560264442e-07, 0.0, -6.446684777232321e-12, 6.337312800632653e-12, 0.0, 0.0, 0.0, 0.004411059652227401]
twist: 
  twist: 
    linear: 
      x: -9.19967231779e-07
      y: -9.28501153578e-07
      z: 0.0
    angular: 
      x: 0.0
      y: 0.0
      z: -1.72999350138e-17
  covariance: [0.0028877988227847527, -9.405651014977923e-25, 0.0, 0.0, 0.0, -3.1295107624871656e-17, -6.032238407625203e-26, 0.0028877988227847527, 0.0, 0.0, 0.0, 2.7079547729149082e-17, 0.0, 0.0, 9.996022864596123e-07, 1.1337123508571747e-30, -9.941855488643331e-31, 0.0, 0.0, 0.0, 1.133712350857175e-30, 9.984129252569428e-07, 3.0873370343160753e-35, 0.0, 0.0, 0.0, -9.941855488643338e-31, 2.191862493157361e-35, 9.984129252569428e-07, 0.0, -3.1295107624871644e-17, 2.7079547729149076e-17, 0.0, 0.0, 0.0, 0.002167706341095777]
---
header: 
  seq: 56
  stamp: 
    secs: 1509918539
    nsecs: 739524841
  frame_id: amiro1/odom
child_frame_id: amiro1/base_link
pose: 
  pose: 
    position: 
      x: -0.0223606722185
      y: -0.0330341351219
      z: 0.0
    orientation: 
      x: 0.0
      y: 0.0
      z: -0.0202368888143
      w: 0.999795213197
  covariance: [0.014723498107635255, -6.896520729418364e-19, 0.0, 0.0, 0.0, 3.486858481543516e-11, -6.896218274935009e-19, 0.014723498107635255, 0.0, 0.0, 0.0, -3.7787790926572176e-11, 0.0, 0.0, 9.993020784870385e-07, -1.7608540475304021e-22, 1.8075618635045671e-22, 0.0, 0.0, 0.0, -1.7608540475304026e-22, 9.986061006116048e-07, -6.249774324903872e-33, 0.0, 0.0, 0.0, 1.807561863504567e-22, 6.34437811025805e-33, 9.986061006116048e-07, 0.0, 3.486858481543514e-11, -3.7787790926572176e-11, 0.0, 0.0, 0.0, 0.00410798295462846]
twist: 
  twist: 
    linear: 
      x: -6.19183053759e-09
      y: -5.99963492208e-09
      z: 0.0
    angular: 
      x: 0.0
      y: 0.0
      z: -2.26151635493e-24
