header: 
  seq: 0
  stamp: 
    secs: 1509917898
    nsecs: 231161833
  frame_id: amiro1/odom
child_frame_id: amiro1/base_link
pose: 
  pose: 
    position: 
      x: -0.00821294076741
      y: -0.0285204462707
      z: 0.0
    orientation: 
      x: 0.0
      y: 0.0
      z: -0.0203821342872
      w: 0.999792262724
  covariance: [0.1, 0.0, 0.0, 0.0, 0.0, 0.0, 0.0, 0.1, 0.0, 0.0, 0.0, 0.0, 0.0, 0.0, 1e-06, 0.0, 0.0, 0.0, 0.0, 0.0, 0.0, 1e-06, 0.0, 0.0, 0.0, 0.0, 0.0, 0.0, 1e-06, 0.0, 0.0, 0.0, 0.0, 0.0, 0.0, 0.01]
twist: 
  twist: 
    linear: 
      x: 0.0
      y: 0.0
      z: 0.0
    angular: 
      x: 0.0
      y: 0.0
      z: 0.0
  covariance: [1e-09, 0.0, 0.0, 0.0, 0.0, 0.0, 0.0, 1e-09, 0.0, 0.0, 0.0, 0.0, 0.0, 0.0, 1e-06, 0.0, 0.0, 0.0, 0.0, 0.0, 0.0, 1e-06, 0.0, 0.0, 0.0, 0.0, 0.0, 0.0, 1e-06, 0.0, 0.0, 0.0, 0.0, 0.0, 0.0, 1e-09]
---
header: 
  seq: 1
  stamp: 
    secs: 1509917898
    nsecs: 281816244
  frame_id: amiro1/odom
child_frame_id: amiro1/base_link
pose: 
  pose: 
    position: 
      x: -0.0088929383361
      y: -0.0292384916951
      z: 0.0
    orientation: 
      x: 0.0
      y: 0.0
      z: -0.0198159792521
      w: 0.999803644205
  covariance: [0.05062526207154476, 3.077017903911024e-30, 0.0, 0.0, 0.0, 0.0, -3.077017903911024e-30, 0.05062526207154476, 0.0, 0.0, 0.0, 0.0, 0.0, 0.0, 9.996711896984461e-07, 0.0, 0.0, 0.0, 0.0, 0.0, 0.0, 9.993428121293735e-07, 2.3744985886610208e-36, 0.0, 0.0, 0.0, 0.0, -2.3744985886610208e-36, 9.993428121293735e-07, 0.0, 0.0, 0.0, 0.0, 0.0, 0.0, 0.005659583698423901]
twist: 
  twist: 
    linear: 
      x: -3.21615700628e-13
      y: -3.6860625229e-13
      z: 0.0
    angular: 
      x: 0.0
      y: 0.0
      z: 4.39964146184e-12
  covariance: [0.0012663612854638185, 0.0, 0.0, 0.0, 0.0, 0.0, 0.0, 0.0012663612854638185, 0.0, 0.0, 0.0, 0.0, 0.0, 0.0, 9.995069468755207e-07, 0.0, 0.0, 0.0, 0.0, 0.0, 0.0, 9.980336022432672e-07, 3.783584609694146e-36, 0.0, 0.0, 0.0, 0.0, -3.783584609694146e-36, 9.980336022432672e-07, 0.0, 0.0, 0.0, 0.0, 0.0, 0.0, 0.001013089226318359]
---
header: 
  seq: 2
  stamp: 
    secs: 1509917898
    nsecs: 319643736
  frame_id: amiro1/odom
child_frame_id: amiro1/base_link
pose: 
  pose: 
    position: 
      x: -0.00865708848461
      y: -0.0289895429491
      z: 0.0
    orientation: 
      x: 0.0
      y: 0.0
      z: -0.0200663885817
      w: 0.999798649754
  covariance: [0.0344341614618473, 4.13379144381686e-24, 0.0, 0.0, 0.0, 2.784898286880699e-17, -4.1337911810226994e-24, 0.0344341614618473, 0.0, 0.0, 0.0, -2.6313556351340773e-17, 0.0, 0.0, 9.995597914586417e-07, -5.398301199371394e-27, 4.710116585492124e-27, 0.0, 0.0, 0.0, -5.398301199371395e-27, 9.991203575373502e-07, -5.0380747480762585e-33, 0.0, 0.0, 0.0, 4.710116585492126e-27, 5.0381217678502914e-33, 9.991203575373502e-07, 0.0, 2.7848982868806997e-17, -2.6313556351340785e-17, 0.0, 0.0, 0.0, 0.004422967557249061]
twist: 
  twist: 
    linear: 
      x: 2.06016258241e-07
      y: 2.35484719494e-07
      z: 0.0
    angular: 
      x: 0.0
      y: 0.0
      z: -2.42053288697e-06
  covariance: [0.0022127583542215913, -2.067951531382569e-25, 0.0, 0.0, 0.0, 5.301363903027921e-23, 2.067951531382569e-25, 0.0022127583542215913, 0.0, 0.0, 0.0, -4.625537014970275e-23, 0.0, 0.0, 9.993399778220366e-07, -1.380860967651857e-35, 1.1116114972077774e-35, 0.0, 0.0, 0.0, -1.380860967651857e-35, 9.973703099309883e-07, 3.644177543164347e-35, 0.0, 0.0, 0.0, 1.1116114972077771e-35, -3.644177543164347e-35, 9.973703099309883e-07, 0.0, 5.301363903027923e-23, -4.6255370149702763e-23, 0.0, 0.0, 0.0, 0.0017695571558182857]
---
header: 
  seq: 3
  stamp: 
    secs: 1509917898
    nsecs: 387012243
  frame_id: amiro1/odom
child_frame_id: amiro1/base_link
pose: 
  pose: 
    position: 
      x: -0.00924815483152
      y: -0.0296164843062
      z: 0.0
    orientation: 
      x: 0.0
      y: 0.0
      z: -0.0211663604275
      w: 0.999775967498
  covariance: [0.02743994470155086, -3.9301348091522063e-19, 0.0, 0.0, 0.0, -2.6582341742708845e-11, -3.9304521851832172e-19, 0.02743994470155086, 0.0, 0.0, 0.0, 2.520894200401903e-11, 0.0, 0.0, 9.997527270828643e-07, 1.9378323184277045e-21, -1.6953322191821008e-21, 0.0, 0.0, 0.0, 1.9378323184277045e-21, 9.995056990091276e-07, 5.491462919188415e-33, 0.0, 0.0, 0.0, -1.6953322191821008e-21, 2.108055161631887e-32, 9.995056990091276e-07, 0.0, -2.6582341742708832e-11, 2.5208942004019024e-11, 0.0, 0.0, 0.0, 0.004587569802150018]
twist: 
  twist: 
    linear: 
      x: -2.49705981274e-06
      y: -2.87204306927e-06
      z: 0.0
    angular: 
      x: 0.0
      y: 0.0
      z: -3.89144597802e-05
  covariance: [0.003903331432591524, -1.0341118754788717e-24, 0.0, 0.0, 0.0, -2.558435949521185e-16, -6.20249470140076e-25, 0.003903331432591524, 0.0, 0.0, 0.0, 2.2386677799183014e-16, 0.0, 0.0, 9.996291824731824e-07, 4.973958195105501e-30, -4.010858398358567e-30, 0.0, 0.0, 0.0, 4.9739581951055024e-30, 9.98520014820657e-07, -3.354331478332424e-35, 0.0, 0.0, 0.0, -4.010858398358565e-30, 3.354331478332423e-35, 9.98520014820657e-07, 0.0, -2.558435949521181e-16, 2.2386677799182994e-16, 0.0, 0.0, 0.0, 0.003115857581774163]
---
header: 
  seq: 4
  stamp: 
    secs: 1509917898
    nsecs: 418820381
  frame_id: amiro1/odom
child_frame_id: amiro1/base_link
pose: 
  pose: 
    position: 
      x: -0.00936259040402
      y: -0.0297134372225
      z: 0.0
    orientation: 
      x: 0.0
      y: 0.0
      z: -0.0217021452455
      w: 0.999764480711
  covariance: [0.022506241534143365, -1.2847882265452377e-17, 0.0, 0.0, 0.0, 1.7704878340926234e-10, -1.2847904882888368e-17, 0.02250624153414336, 0.0, 0.0, 0.0, -1.6758487141015847e-10, 0.0, 0.0, 9.994765738088347e-07, -4.999692430719615e-20, 4.346905783161566e-20, 0.0, 0.0, 0.0, -4.9996924307196136e-20, 9.989542425149392e-07, 4.144825336564372e-30, 0.0, 0.0, 0.0, 4.346905783161566e-20, 4.1593796493394174e-30, 9.989542425149392e-07, 0.0, 1.7704878340926234e-10, -1.675848714101585e-10, 0.0, 0.0, 0.0, 0.003940881609134144]
twist: 
  twist: 
    linear: 
      x: -3.46896718953e-06
      y: -3.76693060174e-06
      z: 0.0
    angular: 
      x: 0.0
      y: 0.0
      z: -6.77527368776e-05
  covariance: [0.004704616406551398, -7.243640625690009e-23, 0.0, 0.0, 0.0, -6.593188867682919e-15, -7.532430026594695e-23, 0.004704616406551398, 0.0, 0.0, 0.0, 5.750067769802185e-15, 0.0, 0.0, 9.992152715397037e-07, -1.2810680155760015e-28, 1.0218936095692417e-28, 0.0, 0.0, 0.0, -1.2810680155760013e-28, 9.968757800581314e-07, 1.3461659279612218e-35, 0.0, 0.0, 0.0, 1.0218936095692422e-28, -1.3461659279612218e-35, 9.968757800581314e-07, 0.0, -6.593188867682914e-15, 5.750067769802179e-15, 0.0, 0.0, 0.0, 0.0037501604839239927]
---
header: 
  seq: 5
  stamp: 
    secs: 1509917898
    nsecs: 486687899
  frame_id: amiro1/odom
child_frame_id: amiro1/base_link
pose: 
  pose: 
    position: 
      x: -0.00927963647579
      y: -0.0296184958857
      z: 0.0
    orientation: 
      x: 0.0
      y: 0.0
      z: -0.0211146541342
      w: 0.999777060839
  covariance: [0.02057150102057512, -9.886004689648509e-17, 0.0, 0.0, 0.0, 3.8664148845477873e-10, -9.885997867732709e-17, 0.020571501020575117, 0.0, 0.0, 0.0, -3.8386338930401247e-10, 0.0, 0.0, 9.991110501948478e-07, 1.6556513976953362e-23, -1.5148838170701003e-23, 0.0, 0.0, 0.0, 1.655651397695335e-23, 9.98225254651939e-07, 3.722085312443691e-34, 0.0, 0.0, 0.0, -1.5148838170701e-23, -3.407993221903976e-34, 9.98225254651939e-07, 0.0, 3.866414884547787e-10, -3.8386338930401257e-10, 0.0, 0.0, 0.0, 0.004448947238446461]
twist: 
  twist: 
    linear: 
      x: 8.94179030689e-10
      y: 9.56667052054e-10
      z: 0.0
    angular: 
      x: 0.0
      y: 0.0
      z: -2.57876124907e-12
  covariance: [0.000468712144695043, -3.555460842063239e-29, 0.0, 0.0, 0.0, 7.471960882805293e-26, -3.648936553562971e-29, 0.000468712144695043, 0.0, 0.0, 0.0, -8.324139507482281e-26, 0.0, 0.0, 9.986677592906175e-07, 4.0703250570879906e-32, -3.411029567865561e-32, 0.0, 0.0, 0.0, 4.0703250570879857e-32, 9.947132406015924e-07, -2.507291399028881e-35, 0.0, 0.0, 0.0, -3.411029567865558e-32, 2.507291399028881e-35, 9.947132406015924e-07, 0.0, 7.471960882805183e-26, -8.324139507482208e-26, 0.0, 0.0, 0.0, 0.0003743086324460774]
---
header: 
  seq: 6
  stamp: 
    secs: 1509917898
    nsecs: 515887022
  frame_id: amiro1/odom
child_frame_id: amiro1/base_link
pose: 
  pose: 
    position: 
      x: -0.00936576542963
      y: -0.029695917125
      z: 0.0
    orientation: 
      x: 0.0
      y: 0.0
      z: -0.0216544683401
      w: 0.999765514509
  covariance: [0.01805418323808304, -6.021597706249903e-17, 0.0, 0.0, 0.0, 1.954560630453428e-10, -6.021592979945594e-17, 0.018054183238083037, 0.0, 0.0, 0.0, -1.940490593232752e-10, 0.0, 0.0, 9.994298574632255e-07, 3.223736030420162e-23, -3.0132217105219106e-23, 0.0, 0.0, 0.0, 3.2237360304201626e-23, 9.988610125143463e-07, 1.4541335317412025e-33, 0.0, 0.0, 0.0, -3.01322171052191e-23, -1.4506540684627686e-33, 9.988610125143463e-07, 0.0, 1.9545606304534273e-10, -1.9404905932327524e-10, 0.0, 0.0, 0.0, 0.003827622955499277]
twist: 
  twist: 
    linear: 
      x: -4.91205808326e-08
      y: -4.78472775374e-08
      z: 0.0
    angular: 
      x: 0.0
      y: 0.0
      z: -1.90326360306e-06
  covariance: [0.0012034395909926276, -1.0939276185579897e-24, 0.0, 0.0, 0.0, 3.000534183295797e-17, -1.093946264094924e-24, 0.0012034395909926276, 0.0, 0.0, 0.0, -2.7375741454939423e-17, 0.0, 0.0, 9.991452731749222e-07, 8.204090039391665e-32, -7.043552243912915e-32, 0.0, 0.0, 0.0, 8.204090039391664e-32, 9.965984768549399e-07, 1.3907052513867363e-35, 0.0, 0.0, 0.0, -7.043552243912912e-32, -1.3907052513867363e-35, 9.965984768549397e-07, 0.0, 3.000534183295798e-17, -2.7375741454939435e-17, 0.0, 0.0, 0.0, 0.0009582837269096901]
---
header: 
  seq: 7
  stamp: 
    secs: 1509917898
    nsecs: 592888594
  frame_id: amiro1/odom
child_frame_id: amiro1/base_link
pose: 
  pose: 
    position: 
      x: -0.00953336081554
      y: -0.0298701749021
      z: 0.0
    orientation: 
      x: 0.0
      y: 0.0
      z: -0.02064427548
      w: 0.999786884236
  covariance: [0.018093180049542516, -4.134717722253384e-17, 0.0, 0.0, 0.0, 1.2206645625978266e-10, -4.134708665037778e-17, 0.01809318004954252, 0.0, 0.0, 0.0, -1.2117171190568098e-10, 0.0, 0.0, 9.977833106283274e-07, -6.258909086471554e-20, 5.569047543220968e-20, 0.0, 0.0, 0.0, -6.258909086471553e-20, 9.955861828844884e-07, 1.5653719293143747e-30, 0.0, 0.0, 0.0, 5.569047543220968e-20, 1.564253292802133e-30, 9.955861828844884e-07, 0.0, 1.2206645625978258e-10, -1.21171711905681e-10, 0.0, 0.0, 0.0, 0.004894232092232501]
twist: 
  twist: 
    linear: 
      x: -2.40563738145e-13
      y: -2.70367702533e-13
      z: 0.0
    angular: 
      x: 0.0
      y: 0.0
      z: 6.65423863268e-12
  covariance: [9.999996838975695e-10, -4.9208303731111943e-36, 0.0, 0.0, 0.0, 1.260053452571924e-28, -5.086346629169666e-36, 9.999996838975695e-10, 0.0, 0.0, 0.0, -1.1510653177801961e-28, 0.0, 0.0, 9.966823182106445e-07, -1.5632202706769976e-28, 1.2793160905150812e-28, 0.0, 0.0, 0.0, -1.5632202706769976e-28, 9.86988055189516e-07, -3.825522157390374e-34, 0.0, 0.0, 0.0, 1.2793160905150807e-28, -1.5946390719330062e-34, 9.86988055189516e-07, 0.0, 1.260053452571923e-28, -1.1510653177801968e-28, 0.0, 0.0, 0.0, 9.999995996825046e-10]
---
header: 
  seq: 8
  stamp: 
    secs: 1509917898
    nsecs: 621430397
  frame_id: amiro1/odom
child_frame_id: amiro1/base_link
pose: 
  pose: 
    position: 
      x: -0.00943857693763
      y: -0.0297681736558
      z: 0.0
    orientation: 
      x: 0.0
      y: 0.0
      z: -0.0205399867427
      w: 0.999789032219
  covariance: [0.016332186622999772, -2.832017325706864e-17, 0.0, 0.0, 0.0, 6.148822374596882e-11, -2.8320109880900704e-17, 0.016332186622999772, 0.0, 0.0, 0.0, -6.103447634511201e-11, 0.0, 0.0, 9.994167418862626e-07, 3.160726861997703e-24, -3.691526965907239e-24, 0.0, 0.0, 0.0, 3.1607268619977014e-24, 9.988348389967084e-07, -6.324723844712301e-33, 0.0, 0.0, 0.0, -3.691526965907238e-24, 6.328391387086867e-33, 9.988348389967084e-07, 0.0, 6.14882237459688e-11, -6.103447634511204e-11, 0.0, 0.0, 0.0, 0.0039783486573694085]
twist: 
  twist: 
    linear: 
      x: 1.13438641326e-09
      y: 1.21025185561e-09
      z: 0.0
    angular: 
      x: 0.0
      y: 0.0
      z: 8.29278976106e-12
  covariance: [0.0007164560000494399, -4.6339516772025906e-29, 0.0, 0.0, 0.0, 7.448928106236511e-25, -3.6999978019092997e-29, 0.0007164560000494399, 0.0, 0.0, 0.0, -6.897544924045612e-25, 0.0, 0.0, 9.991256216123531e-07, 7.012304376134295e-33, -7.781612137769168e-33, 0.0, 0.0, 0.0, 7.012304376134298e-33, 9.965205896631215e-07, -1.0182066805287283e-34, 0.0, 0.0, 0.0, -7.781612137769159e-33, 1.0181410625116762e-34, 9.965205896631215e-07, 0.0, 7.448928106236507e-25, -6.89754492404564e-25, 0.0, 0.0, 0.0, 0.0005708370671993067]
---
header: 
  seq: 9
  stamp: 
    secs: 1509917898
    nsecs: 683322430
  frame_id: amiro1/odom
child_frame_id: amiro1/base_link
pose: 
  pose: 
    position: 
      x: -0.00970961256556
      y: -0.0300450775151
      z: 0.0
    orientation: 
      x: 0.0
      y: 0.0
      z: -0.0209669412141
      w: 0.999780169525
  covariance: [0.016268667886549407, -1.9696351080234587e-17, 0.0, 0.0, 0.0, 2.8814938703925233e-11, -1.969633005773469e-17, 0.016268667886549407, 0.0, 0.0, 0.0, -2.859523830682923e-11, 0.0, 0.0, 9.997308590454312e-07, 2.2578520308460657e-23, -2.1163313107347305e-23, 0.0, 0.0, 0.0, 2.257852030846065e-23, 9.994620079784752e-07, 7.812053336920725e-33, 0.0, 0.0, 0.0, -2.1163313107347305e-23, -7.808432814320193e-33, 9.994620079784752e-07, 0.0, 2.8814938703925214e-11, -2.8595238306829233e-11, 0.0, 0.0, 0.0, 0.004348384973894784]
twist: 
  twist: 
    linear: 
      x: -6.08132130879e-07
      y: -6.74809599195e-07
      z: 0.0
    angular: 
      x: 0.0
      y: 0.0
      z: -3.92189601705e-06
  covariance: [0.0022911358390840845, -4.2394039537985634e-24, 0.0, 0.0, 0.0, 4.909438725490322e-17, -3.929086373630346e-24, 0.0022911358390840845, 0.0, 0.0, 0.0, -4.487230092701463e-17, 0.0, 0.0, 9.995963973209453e-07, 5.799288136035306e-32, -5.004590450029176e-32, 0.0, 0.0, 0.0, 5.799288136035305e-32, 9.98389478384403e-07, 5.006061597786825e-35, 0.0, 0.0, 0.0, -5.004590450029174e-32, -5.006061599489183e-35, 9.98389478384403e-07, 0.0, 4.9094387254903196e-17, -4.487230092701464e-17, 0.0, 0.0, 0.0, 0.0018086071745147983]
---
header: 
  seq: 10
  stamp: 
    secs: 1509917898
    nsecs: 729931593
  frame_id: amiro1/odom
child_frame_id: amiro1/base_link
pose: 
  pose: 
    position: 
      x: -0.00980354095774
      y: -0.0301440992718
      z: 0.0
    orientation: 
      x: 0.0
      y: 0.0
      z: -0.0203063096423
      w: 0.999793805636
  covariance: [0.01568306398769044, -1.5814379513168148e-17, 0.0, 0.0, 0.0, 6.265409161157656e-11, -1.581438292767594e-17, 0.01568306398769044, 0.0, 0.0, 0.0, -6.158426834327426e-11, 0.0, 0.0, 9.986015290916274e-07, -3.4337119452618946e-23, 3.0465362145732583e-23, 0.0, 0.0, 0.0, -3.4337119452618964e-23, 9.97210854198203e-07, -5.114246782009543e-33, 0.0, 0.0, 0.0, 3.046536214573258e-23, 5.1191368385089634e-33, 9.97210854198203e-07, 0.0, 6.265409161157653e-11, -6.158426834327427e-11, 0.0, 0.0, 0.0, 0.004167656087421531]
twist: 
  twist: 
    linear: 
      x: -1.98792785571e-09
      y: -2.25405846133e-09
      z: 0.0
    angular: 
      x: 0.0
      y: 0.0
      z: 6.74663419574e-12
  covariance: [0.0002977826619356302, -2.0138573151828518e-28, 0.0, 0.0, 0.0, 4.85500113396737e-25, -2.00081437002129e-28, 0.0002977826619356302, 0.0, 0.0, 0.0, -4.423837496263505e-25, 0.0, 0.0, 9.97905221572317e-07, -8.753154774959962e-32, 7.134549536786843e-32, 0.0, 0.0, 0.0, -8.753154774959962e-32, 9.917247071856522e-07, -1.7068310921523823e-35, 0.0, 0.0, 0.0, 7.134549536786839e-32, 1.7068310921523823e-35, 9.917247071856522e-07, 0.0, 4.855001133967366e-25, -4.423837496263507e-25, 0.0, 0.0, 0.0, 0.0002376900182491121]
---
header: 
  seq: 11
  stamp: 
    secs: 1509917898
    nsecs: 798467159
  frame_id: amiro1/odom
child_frame_id: amiro1/base_link
pose: 
  pose: 
    position: 
      x: -0.0097951944222
      y: -0.0301277430961
      z: 0.0
    orientation: 
      x: 0.0
      y: 0.0
      z: -0.0213113261963
      w: 0.999772887898
  covariance: [0.016044943616148426, -1.1036837233549178e-17, 0.0, 0.0, 0.0, 2.987987927539e-11, -1.103684277237448e-17, 0.016044943616148426, 0.0, 0.0, 0.0, -2.934085429139459e-11, 0.0, 0.0, 9.997569356747737e-07, -7.06437132601097e-23, 6.230296631098373e-23, 0.0, 0.0, 0.0, -7.064371326010972e-23, 9.995141076068124e-07, -9.466479351098538e-33, 0.0, 0.0, 0.0, 6.230296631098374e-23, 9.502684577103864e-33, 9.995141076068124e-07, 0.0, 2.987987927538999e-11, -2.9340854291394586e-11, 0.0, 0.0, 0.0, 0.004529811755536545]
twist: 
  twist: 
    linear: 
      x: -4.45885973564e-09
      y: 4.29156358921e-09
      z: 0.0
    angular: 
      x: 0.0
      y: 0.0
      z: -3.95499830086e-06
  covariance: [0.0020417523848710356, -7.066578436155603e-25, 0.0, 0.0, 0.0, 1.2088243850597646e-17, -7.324129919635979e-25, 0.0020417523848710356, 0.0, 0.0, 0.0, -1.0942385232082947e-17, 0.0, 0.0, 9.99635492160929e-07, -1.7916013053446177e-31, 1.4551462409832457e-31, 0.0, 0.0, 0.0, -1.7916013053446173e-31, 9.985451315874412e-07, -3.880584334293772e-35, 0.0, 0.0, 0.0, 1.4551462409832455e-31, 3.880584334294046e-35, 9.985451315874412e-07, 0.0, 1.208824385059764e-17, -1.094238523208295e-17, 0.0, 0.0, 0.0, 0.0016083868284936004]
---
header: 
  seq: 12
  stamp: 
    secs: 1509917898
    nsecs: 843196630
  frame_id: amiro1/odom
child_frame_id: amiro1/base_link
pose: 
  pose: 
    position: 
      x: -0.00956357733467
      y: -0.0298924546224
      z: 0.0
    orientation: 
      x: 0.0
      y: 0.0
      z: -0.0209676864283
      w: 0.999780153897
  covariance: [0.01576898172735848, -8.822633585060754e-18, 0.0, 0.0, 0.0, -5.84581283627819e-11, -8.822686053430183e-18, 0.01576898172735848, 0.0, 0.0, 0.0, 5.635844800495321e-11, 0.0, 0.0, 9.992577172498221e-07, 2.2980197072642388e-20, -2.0583637583396387e-20, 0.0, 0.0, 0.0, 2.2980197072642394e-20, 9.985176332571727e-07, 6.337561811861662e-31, 0.0, 0.0, 0.0, -2.0583637583396393e-20, 6.407340438200749e-31, 9.985176332571727e-07, 0.0, -5.845812836278192e-11, 5.6358448004953205e-11, 0.0, 0.0, 0.0, 0.005043926160790419]
twist: 
  twist: 
    linear: 
      x: 2.61500970325e-13
      y: 2.91957695258e-13
      z: 0.0
    angular: 
      x: 0.0
      y: 0.0
      z: 5.16155704739e-13
  covariance: [9.999996880893105e-10, -7.5488715671299e-37, 0.0, 0.0, 0.0, 1.4132367740079904e-29, -7.572374543707415e-37, 9.999996880893105e-10, 0.0, 0.0, 0.0, -1.2818404003636934e-29, 0.0, 0.0, 9.988874011729159e-07, 5.832696232853708e-29, -4.79929860951182e-29, 0.0, 0.0, 0.0, 5.832696232853713e-29, 9.955790328895083e-07, -9.88456724524816e-35, 0.0, 0.0, 0.0, -4.7992986095118215e-29, 9.884567245247614e-35, 9.955790328895083e-07, 0.0, 1.4132367740079893e-29, -1.281840400363693e-29, 0.0, 0.0, 0.0, 9.999996004556116e-10]
---
header: 
  seq: 13
  stamp: 
    secs: 1509917898
    nsecs: 893639803
  frame_id: amiro1/odom
child_frame_id: amiro1/base_link
pose: 
  pose: 
    position: 
      x: -0.00959263882993
      y: -0.0299156026003
      z: 0.0
    orientation: 
      x: 0.0
      y: 0.0
      z: -0.0108760995885
      w: 0.99994085348
  covariance: [0.015462851919877873, -6.181186578876068e-18, 0.0, 0.0, 0.0, -2.7608302788703955e-11, -6.181224020883716e-18, 0.015462851919877873, 0.0, 0.0, 0.0, 2.6611302102493078e-11, 0.0, 0.0, 9.996698135795613e-07, 2.495684766464788e-23, -2.1641679908609386e-23, 0.0, 0.0, 0.0, 2.495684766464788e-23, 9.993400630272284e-07, 3.809095404291557e-33, 0.0, 0.0, 0.0, -2.1641679908609392e-23, -3.805263292707876e-33, 9.993400630272284e-07, 0.0, -2.760830278870396e-11, 2.661130210249307e-11, 0.0, 0.0, 0.0, 0.004466123869529012]
twist: 
  twist: 
    linear: 
      x: 2.08727201877e-09
      y: 2.93839022535e-09
      z: 0.0
    angular: 
      x: 0.0
      y: 0.0
      z: 2.00920632093e-10
  covariance: [0.0012760138163381129, -2.2344790273691644e-26, 0.0, 0.0, 0.0, 4.0260810853386e-24, -2.2102267793350918e-26, 0.0012760138163381129, 0.0, 0.0, 0.0, -3.694268888662931e-24, 0.0, 0.0, 9.995048839039982e-07, 6.384476120130875e-32, -5.083797988285125e-32, 0.0, 0.0, 0.0, 6.38447612013088e-32, 9.980253829202826e-07, -8.415252431342568e-36, 0.0, 0.0, 0.0, -5.083797988285126e-32, 8.415252431342534e-36, 9.980253829202828e-07, 0.0, 4.026081085338596e-24, -3.694268888662931e-24, 0.0, 0.0, 0.0, 0.0010088644490962799]
---
header: 
  seq: 14
  stamp: 
    secs: 1509917898
    nsecs: 937272310
  frame_id: amiro1/odom
child_frame_id: amiro1/base_link
pose: 
  pose: 
    position: 
      x: -0.0100275490929
      y: -0.0318830098028
      z: 0.0
    orientation: 
      x: 0.0
      y: 0.0
      z: -0.0172647477568
      w: 0.999850953135
  covariance: [0.015000004197635291, -4.439410979712443e-18, 0.0, 0.0, 0.0, -1.4136320632171614e-11, -4.4394437003893044e-18, 0.015000004197635291, 0.0, 0.0, 0.0, 1.353734406257311e-11, 0.0, 0.0, 9.996183136196977e-07, 5.343539287765631e-23, -3.7957570491676637e-23, 0.0, 0.0, 0.0, 5.343539287765628e-23, 9.992372097944242e-07, -2.5080347469144326e-34, 0.0, 0.0, 0.0, -3.795757049167665e-23, 7.739948513441286e-33, 9.992372097944242e-07, 0.0, -1.4136320632171621e-11, 1.3537344062573107e-11, 0.0, 0.0, 0.0, 0.004147253344633542]
twist: 
  twist: 
    linear: 
      x: -1.29565677404e-06
      y: -6.56853153704e-06
      z: 0.0
    angular: 
      x: 0.0
      y: 0.0
      z: -7.93823931145e-05
  covariance: [0.0024047651834933396, -2.2490263570515273e-24, 0.0, 0.0, 0.0, -3.754164689457015e-17, -2.1448696215637257e-24, 0.0024047651834933396, 0.0, 0.0, 0.0, 3.4328930292192763e-17, 0.0, 0.0, 9.994276889889349e-07, 1.3437427490469203e-31, -9.112828804302043e-32, 0.0, 0.0, 0.0, 1.3437427490469194e-31, 9.97718577901925e-07, 6.937584547326578e-37, 0.0, 0.0, 0.0, -9.11282880430204e-32, -2.060273115329159e-35, 9.97718577901925e-07, 0.0, -3.7541646894570174e-17, 3.432893029219275e-17, 0.0, 0.0, 0.0, 0.0018814011868269868]
---
header: 
  seq: 15
  stamp: 
    secs: 1509917898
    nsecs: 968693733
  frame_id: amiro1/odom
child_frame_id: amiro1/base_link
pose: 
  pose: 
    position: 
      x: -0.0103123059074
      y: -0.0324944566844
      z: 0.0
    orientation: 
      x: 0.0
      y: 0.0
      z: -0.020078262338
      w: 0.999798411372
  covariance: [0.014215762020255237, -2.2820066237873125e-17, 0.0, 0.0, 0.0, 4.3944217454696606e-10, -2.282003522252873e-17, 0.014215762020255153, 0.0, 0.0, 0.0, -9.7007219537736e-11, 0.0, 0.0, 9.807676893852494e-07, -7.567512059248841e-22, 1.3166694612404548e-22, 0.0, 0.0, 0.0, -7.567512059248843e-22, 9.629589862229416e-07, 1.1603727914933096e-32, 0.0, 0.0, 0.0, 1.3166694612404548e-22, 2.6963019221421302e-33, 9.629589862229416e-07, 0.0, 4.3944217454696595e-10, -9.700721953773599e-11, 0.0, 0.0, 0.0, 0.003762899559695887]
twist: 
  twist: 
    linear: 
      x: -6.97601523362e-10
      y: -2.99975016046e-09
      z: 0.0
    angular: 
      x: 0.0
      y: 0.0
      z: -6.37910974579e-11
  covariance: [2.083763199515059e-05, -1.0558035507805387e-29, 0.0, 0.0, 0.0, -7.375639522967637e-26, -1.0542566377048989e-29, 2.083763199515059e-05, 0.0, 0.0, 0.0, 3.018056104004518e-26, 0.0, 0.0, 9.716955246946913e-07, -3.032439688839219e-30, 4.567161235803063e-31, 0.0, 0.0, 0.0, -3.0324396888392202e-30, 9.031897176433463e-07, -4.015794983068994e-34, 0.0, 0.0, 0.0, 4.567161235803063e-31, 4.015794963384254e-34, 9.031897176433463e-07, 0.0, -7.375639522967646e-26, 3.0180561040045156e-26, 0.0, 0.0, 0.0, 1.666645867879805e-05]
---
header: 
  seq: 16
  stamp: 
    secs: 1509917899
    nsecs:  38169622
  frame_id: amiro1/odom
child_frame_id: amiro1/base_link
pose: 
  pose: 
    position: 
      x: -0.0101980017465
      y: -0.0321097122648
      z: 0.0
    orientation: 
      x: 0.0
      y: 0.0
      z: -0.0197701943163
      w: 0.999804550608
  covariance: [0.015030868748624094, -1.5898537562965844e-17, 0.0, 0.0, 0.0, 2.2391520919636966e-10, -1.5898515167816112e-17, 0.015030868748624039, 0.0, 0.0, 0.0, -5.028398702090411e-11, 0.0, 0.0, 9.997602228286172e-07, -9.835016628120006e-22, 2.2864594962837586e-22, 0.0, 0.0, 0.0, -9.835016628120006e-22, 9.995206696795686e-07, 5.590298484205553e-34, 0.0, 0.0, 0.0, 2.286459496283758e-22, 1.316659467412536e-33, 9.995206696795686e-07, 0.0, 2.2391520919636966e-10, -5.0283987020904096e-11, 0.0, 0.0, 0.0, 0.004423232080640448]
twist: 
  twist: 
    linear: 
      x: -3.59421213676e-08
      y: -1.63268592837e-07
      z: 0.0
    angular: 
      x: 0.0
      y: 0.0
      z: 8.99048455085e-08
  covariance: [0.001792002419777286, -1.4639699492571763e-25, 0.0, 0.0, 0.0, 1.5260718690408715e-18, -1.4584837597540592e-25, 0.001792002419777286, 0.0, 0.0, 0.0, -2.7156781402094076e-19, 0.0, 0.0, 9.996404186357766e-07, -1.950590486276672e-30, 3.703249463961411e-31, 0.0, 0.0, 0.0, -1.950590486276673e-30, 9.985645838508122e-07, 9.35936260395373e-36, 0.0, 0.0, 0.0, 3.7032494639614116e-31, -9.359362603961941e-36, 9.985645838508122e-07, 0.0, 1.5260718690408715e-18, -2.715678140209407e-19, 0.0, 0.0, 0.0, 0.0014061841680229564]
---
header: 
  seq: 17
  stamp: 
    secs: 1509917899
    nsecs:  93704939
  frame_id: amiro1/odom
child_frame_id: amiro1/base_link
pose: 
  pose: 
    position: 
      x: -0.0106377934273
      y: -0.0332028518151
      z: 0.0
    orientation: 
      x: 0.0
      y: 0.0
      z: -0.0229971817136
      w: 0.999735529844
  covariance: [0.015463474988190593, -3.8273320405090254e-17, 0.0, 0.0, 0.0, 5.44724460964778e-10, -3.8273371274918255e-17, 0.01546347498819049, 0.0, 0.0, 0.0, -1.9545909522429575e-10, 0.0, 0.0, 9.993471868897225e-07, -9.288968599518377e-20, 3.2349828981828035e-20, 0.0, 0.0, 0.0, -9.288968599518467e-20, 9.986960753509608e-07, -2.2986676774064767e-26, 0.0, 0.0, 0.0, 3.234982898182551e-20, 2.2995861198834828e-26, 9.986960753509608e-07, 0.0, 5.447244609647779e-10, -1.9545909522429578e-10, 0.0, 0.0, 0.0, 0.005367457429753058]
twist: 
  twist: 
    linear: 
      x: -4.65102362334e-13
      y: -1.33896079157e-12
      z: 0.0
    angular: 
      x: 0.0
      y: 0.0
      z: -1.76301617619e-11
  covariance: [9.999996930838403e-10, -5.569315731585479e-37, 0.0, 0.0, 0.0, 5.063208723388947e-29, -5.552765687215775e-37, 9.999996930838403e-10, 0.0, 0.0, 0.0, -9.407013850944571e-30, 0.0, 0.0, 9.990214189279446e-07, -2.317494978941688e-28, 6.893102422863962e-29, 0.0, 0.0, 0.0, -2.3174949789417066e-28, 9.961084750607526e-07, -2.796245761354063e-34, 0.0, 0.0, 0.0, 6.89310242286334e-29, 1.7673698665769282e-34, 9.961084750607526e-07, 0.0, 5.06320872338895e-29, -9.407013850944569e-30, 0.0, 0.0, 0.0, 9.999996026666094e-10]
---
header: 
  seq: 18
  stamp: 
    secs: 1509917899
    nsecs: 111059427
  frame_id: amiro1/odom
child_frame_id: amiro1/base_link
pose: 
  pose: 
    position: 
      x: -0.0105139964697
      y: -0.0327597442729
      z: 0.0
    orientation: 
      x: 0.0
      y: 0.0
      z: -0.0228127446597
      w: 0.999739755477
  covariance: [0.014038544669974857, -2.3623804502999376e-17, 0.0, 0.0, 0.0, 2.87408373095773e-10, -2.3623842361336804e-17, 0.014038544669974791, 0.0, 0.0, 0.0, -1.030815132312641e-10, 0.0, 0.0, 9.990414743964425e-07, -1.3481667618424295e-21, 3.8474973027810276e-22, 0.0, 0.0, 0.0, -1.3481667618424293e-21, 9.980866138097293e-07, -8.145009760802437e-32, 0.0, 0.0, 0.0, 3.8474973027810267e-22, 8.256540664808455e-32, 9.980866138097293e-07, 0.0, 2.874083730957729e-10, -1.030815132312641e-10, 0.0, 0.0, 0.0, 0.0039056819201037816]
twist: 
  twist: 
    linear: 
      x: -2.06531650359e-08
      y: -6.98544194165e-08
      z: 0.0
    angular: 
      x: 0.0
      y: 0.0
      z: -1.48559185679e-11
  covariance: [0.0004362498235567473, -1.2459789330067201e-26, 0.0, 0.0, 0.0, 1.367647136301477e-23, -1.2220579112825027e-26, 0.0004362498235567473, 0.0, 0.0, 0.0, -2.551598140673288e-24, 0.0, 0.0, 9.985635875143432e-07, -3.3375091914187474e-30, 7.887286879830629e-31, 0.0, 0.0, 0.0, -3.337509191418748e-30, 9.94303324877528e-07, -8.305181846862202e-35, 0.0, 0.0, 0.0, 7.887286879830628e-31, 8.304847955141293e-35, 9.94303324877528e-07, 0.0, 1.3676471363014763e-23, -2.5515981406732854e-24, 0.0, 0.0, 0.0, 0.00034709076745565717]
---
header: 
  seq: 19
  stamp: 
    secs: 1509917899
    nsecs: 193288088
  frame_id: amiro1/odom
child_frame_id: amiro1/base_link
pose: 
  pose: 
    position: 
      x: -0.010605497304
      y: -0.0325623590423
      z: 0.0
    orientation: 
      x: 0.0
      y: 0.0
      z: -0.0222069793132
      w: 0.999753394628
  covariance: [0.015364232468464651, -1.8268001461825936e-17, 0.0, 0.0, 0.0, 1.625597509306191e-10, -1.8267973020524957e-17, 0.015364232468464599, 0.0, 0.0, 0.0, -5.7879632670285226e-11, 0.0, 0.0, 9.997973955373665e-07, -1.585076378957721e-21, 4.686412575674177e-22, 0.0, 0.0, 0.0, -1.5850763789577217e-21, 9.99594955514258e-07, -4.507868021137866e-33, 0.0, 0.0, 0.0, 4.686412575674177e-22, 1.1840672311228345e-32, 9.99594955514258e-07, 0.0, 1.6255975093061906e-10, -5.787963267028522e-11, 0.0, 0.0, 0.0, 0.00469263691962505]
twist: 
  twist: 
    linear: 
      x: -3.51787710391e-07
      y: 4.80731674841e-08
      z: 0.0
    angular: 
      x: 0.0
      y: 0.0
      z: 3.91175283115e-06
  covariance: [0.0025693211196611493, -4.6161958329050475e-24, 0.0, 0.0, 0.0, 2.2428825652967314e-16, -4.706432001049842e-24, 0.0025693211196611493, 0.0, 0.0, 0.0, -6.725941515735457e-17, 0.0, 0.0, 9.9969615499791e-07, -3.9620416484055674e-30, 9.773149576906521e-31, 0.0, 0.0, 0.0, -3.962041648405568e-30, 9.98786821346737e-07, 2.6474875425504283e-35, 0.0, 0.0, 0.0, 9.773149576906526e-31, -2.647487543041951e-35, 9.98786821346737e-07, 0.0, 2.2428825652967304e-16, -6.725941515735462e-17, 0.0, 0.0, 0.0, 0.001991620746436619]
---
header: 
  seq: 20
  stamp: 
    secs: 1509917899
    nsecs: 218097925
  frame_id: amiro1/odom
child_frame_id: amiro1/base_link
pose: 
  pose: 
    position: 
      x: -0.0106054941918
      y: -0.0325623579315
      z: 0.0
    orientation: 
      x: 0.0
      y: 0.0
      z: -0.0222069815431
      w: 0.999753394578
  covariance: [0.01660493114819534, -1.9703534812427868e-17, 0.0, 0.0, 0.0, 1.5984950122145761e-10, -1.970353242562507e-17, 0.016604931148195293, 0.0, 0.0, 0.0, -1.0099941896941573e-10, 0.0, 0.0, 9.993291250027664e-07, 1.5205519696021056e-22, 8.271718232825302e-21, 0.0, 0.0, 0.0, 1.5205519696021056e-22, 9.986600478883731e-07, 3.403456496269151e-33, 0.0, 0.0, 0.0, 8.271718232825305e-21, -7.153130859891003e-33, 9.986600478883731e-07, 0.0, 1.5984950122145756e-10, -1.0099941896941572e-10, 0.0, 0.0, 0.0, 0.0061815293483650155]
twist: 
  twist: 
    linear: 
      x: -1.20647652256e-13
      y: -1.06438188276e-14
      z: 0.0
    angular: 
      x: 0.0
      y: 0.0
      z: 1.57236263025e-12
  covariance: [9.999996908734745e-10, -5.2764604388376025e-37, 0.0, 0.0, 0.0, 2.961197220900545e-29, -5.338986051257994e-37, 9.999996908734745e-10, 0.0, 0.0, 0.0, -8.851180641144177e-30, 0.0, 0.0, 9.989943621961423e-07, -5.317951792466078e-31, 2.041980201178082e-29, 0.0, 0.0, 0.0, -5.3179517924660765e-31, 9.96001553946664e-07, 1.2500573715199249e-34, 0.0, 0.0, 0.0, 2.041980201178081e-29, -1.2500573715198761e-34, 9.96001553946664e-07, 0.0, 2.961197220900544e-29, -8.851180641144186e-30, 0.0, 0.0, 0.0, 9.999995980414157e-10]
---
header: 
  seq: 21
  stamp: 
    secs: 1509917899
    nsecs: 276496410
  frame_id: amiro1/odom
child_frame_id: amiro1/base_link
pose: 
  pose: 
    position: 
      x: -0.0102145398362
      y: -0.0319019774817
      z: 0.0
    orientation: 
      x: 0.0
      y: 0.0
      z: -0.0213091467669
      w: 0.999772934353
  covariance: [0.01633552149074422, -1.373653020085327e-17, 0.0, 0.0, 0.0, 8.248723553328505e-11, -1.3736530363698523e-17, 0.016335521490744187, 0.0, 0.0, 0.0, -4.997614495442185e-11, 0.0, 0.0, 9.997147675003816e-07, -9.17912270254374e-22, 3.954864004345249e-22, 0.0, 0.0, 0.0, -9.179122702543737e-22, 9.99429860467319e-07, -2.0890415405073365e-33, 0.0, 0.0, 0.0, 3.9548640043452483e-22, 4.634504027551951e-33, 9.99429860467319e-07, 0.0, 8.248723553328503e-11, -4.9976144954421847e-11, 0.0, 0.0, 0.0, 0.004920102990157733]
twist: 
  twist: 
    linear: 
      x: -1.71315304332e-08
      y: -6.97708959396e-08
      z: 0.0
    angular: 
      x: 0.0
      y: 0.0
      z: 1.72142188348e-11
  covariance: [0.0014901229571818591, -3.1100574198283805e-25, 0.0, 0.0, 0.0, 8.123273595956173e-23, -3.053937847781753e-25, 0.0014901229571818591, 0.0, 0.0, 0.0, -2.744440544459087e-23, 0.0, 0.0, 9.995722733556533e-07, -2.3094814709756992e-30, 8.75661885284786e-31, 0.0, 0.0, 0.0, -2.3094814709756985e-30, 9.982934595942774e-07, 2.993368252911157e-35, 0.0, 0.0, 0.0, 8.75661885284786e-31, -2.993368252911157e-35, 9.982934595942774e-07, 0.0, 8.123273595956173e-23, -2.744440544459086e-23, 0.0, 0.0, 0.0, 0.001167970703673914]
---
header: 
  seq: 22
  stamp: 
    secs: 1509917899
    nsecs: 343230486
  frame_id: amiro1/odom
child_frame_id: amiro1/base_link
pose: 
  pose: 
    position: 
      x: -0.0101418217148
      y: -0.0316073455279
      z: 0.0
    orientation: 
      x: 0.0
      y: 0.0
      z: -0.021848834393
      w: 0.999761285726
  covariance: [0.016674015707651885, -9.41562800884966e-18, 0.0, 0.0, 0.0, -3.2622345672885575e-11, -9.41562541334582e-18, 0.01667401570765186, 0.0, 0.0, 0.0, -6.65703589297727e-12, 0.0, 0.0, 9.989428473933917e-07, 4.1998392903360476e-20, -8.269979667119859e-21, 0.0, 0.0, 0.0, 4.1998392903360476e-20, 9.978901540060333e-07, 3.1701939369598375e-31, 0.0, 0.0, 0.0, -8.269979667119856e-21, 3.188527140016579e-31, 9.978901540060333e-07, 0.0, -3.262234567288558e-11, -6.65703589297728e-12, 0.0, 0.0, 0.0, 0.005382967330990131]
twist: 
  twist: 
    linear: 
      x: 7.21133916092e-14
      y: 3.66847365465e-13
      z: 0.0
    angular: 
      x: 0.0
      y: 0.0
      z: -3.2194430295e-12
  covariance: [9.999996941385876e-10, -1.2252132686950503e-36, 0.0, 0.0, 0.0, 3.903305196376434e-29, -1.2609980538844467e-36, 9.999996941385876e-10, 0.0, 0.0, 0.0, -1.8016935894017938e-29, 0.0, 0.0, 9.98415945198557e-07, 1.036964674504231e-28, -1.5748671020241365e-29, 0.0, 0.0, 0.0, 1.0369646745042315e-28, 9.937233607671064e-07, 1.2117952071461837e-34, 0.0, 0.0, 0.0, -1.5748671020241365e-29, -4.1932486315194326e-35, 9.937233607671064e-07, 0.0, 3.9033051963764327e-29, -1.8016935894017935e-29, 0.0, 0.0, 0.0, 9.99999600392558e-10]
---
header: 
  seq: 23
  stamp: 
    secs: 1509917899
    nsecs: 392712355
  frame_id: amiro1/odom
child_frame_id: amiro1/base_link
pose: 
  pose: 
    position: 
      x: -0.0100799680557
      y: -0.0313566740846
      z: 0.0
    orientation: 
      x: 0.0
      y: 0.0
      z: -0.0221565348176
      w: 0.999754513851
  covariance: [0.01607094437741094, -6.639633086252066e-18, 0.0, 0.0, 0.0, -1.431722183008846e-11, -6.63963398302249e-18, 0.016070944377410922, 0.0, 0.0, 0.0, -3.346025251738309e-12, 0.0, 0.0, 9.99663403193713e-07, -5.641134773743386e-23, 2.523837231234049e-23, 0.0, 0.0, 0.0, -5.641134773743385e-23, 9.993272591022676e-07, 4.9028458779576625e-33, 0.0, 0.0, 0.0, 2.5238372312340485e-23, -4.894123709874561e-33, 9.993272591022676e-07, 0.0, -1.4317221830088463e-11, -3.3460252517383125e-12, 0.0, 0.0, 0.0, 0.004550966825282939]
twist: 
  twist: 
    linear: 
      x: 3.78170747207e-09
      y: 3.10891777766e-08
      z: 0.0
    angular: 
      x: 0.0
      y: 0.0
      z: -8.85564087348e-12
  covariance: [0.0012607677673681366, -3.602603896229358e-25, 0.0, 0.0, 0.0, 3.999050966476683e-23, -3.5038394355514355e-25, 0.0012607677673681366, 0.0, 0.0, 0.0, -1.7529541971103e-23, 0.0, 0.0, 9.994952746603726e-07, -1.4087491267847845e-31, 5.582735555120526e-32, 0.0, 0.0, 0.0, -1.408749126784784e-31, 9.979871678292732e-07, -4.092053213332765e-35, 0.0, 0.0, 0.0, 5.582735555120523e-32, 4.092085320163961e-35, 9.979871678292732e-07, 0.0, 3.9990509664766794e-23, -1.7529541971102994e-23, 0.0, 0.0, 0.0, 0.00098963837487753]
---
header: 
  seq: 24
  stamp: 
    secs: 1509917899
    nsecs: 442722559
  frame_id: amiro1/odom
child_frame_id: amiro1/base_link
pose: 
  pose: 
    position: 
      x: -0.00972613585559
      y: -0.0308661018335
      z: 0.0
    orientation: 
      x: 0.0
      y: 0.0
      z: -0.0218002286481
      w: 0.999762346776
  covariance: [0.015665245841775317, -4.7251322008298665e-18, 0.0, 0.0, 0.0, -1.1963038081653374e-11, -4.725102196516713e-18, 0.015665245841775303, 0.0, 0.0, 0.0, -7.589412332819278e-13, 0.0, 0.0, 9.996669569051071e-07, 5.184946074572827e-22, -6.306935326903552e-23, 0.0, 0.0, 0.0, 5.184946074572827e-22, 9.993343575120534e-07, 3.3344072755425007e-34, 0.0, 0.0, 0.0, -6.306935326903551e-23, -1.3703913141886228e-34, 9.993343575120534e-07, 0.0, -1.1963038081653379e-11, -7.589412332819295e-13, 0.0, 0.0, 0.0, 0.0043033102841452545]
twist: 
  twist: 
    linear: 
      x: 1.27126259978e-06
      y: 1.9886182601e-06
      z: 0.0
    angular: 
      x: 0.0
      y: 0.0
      z: 4.66995677846e-06
  covariance: [0.0025843940691868874, -6.421566526305893e-24, 0.0, 0.0, 0.0, -2.826917523118828e-17, -7.413863768266234e-24, 0.0025843940691868874, 0.0, 0.0, 0.0, -1.1739302630098609e-17, 0.0, 0.0, 9.995006018151128e-07, 1.2912310838749317e-30, -9.926677065776277e-32, 0.0, 0.0, 0.0, 1.2912310838749317e-30, 9.980083649812456e-07, 9.227511059048229e-36, 0.0, 0.0, 0.0, -9.92667706577627e-32, -9.227511057778302e-36, 9.980083649812456e-07, 0.0, -2.8269175231188306e-17, -1.1739302630098614e-17, 0.0, 0.0, 0.0, 0.0019897029228229473]
---
header: 
  seq: 25
  stamp: 
    secs: 1509917899
    nsecs: 474247456
  frame_id: amiro1/odom
child_frame_id: amiro1/base_link
pose: 
  pose: 
    position: 
      x: -0.00969340550331
      y: -0.0313671522403
      z: 0.0
    orientation: 
      x: 0.0
      y: 0.0
      z: -0.0229700801515
      w: 0.999736152901
  covariance: [0.014705791726965203, -7.752770316979722e-18, 0.0, 0.0, 0.0, -1.20826754088255e-10, -7.752788165754009e-18, 0.01470579172696519, 0.0, 0.0, 0.0, 7.982259024004759e-11, 0.0, 0.0, 9.971885895314615e-07, 6.200838599506622e-22, -3.202041976292346e-22, 0.0, 0.0, 0.0, 6.200838599506624e-22, 9.944085885216497e-07, -7.186126104994874e-33, 0.0, 0.0, 0.0, -3.202041976292346e-22, 7.444922941271909e-33, 9.944085885216497e-07, 0.0, -1.20826754088255e-10, 7.982259024004755e-11, 0.0, 0.0, 0.0, 0.003825273854440829]
twist: 
  twist: 
    linear: 
      x: 7.93342057588e-09
      y: 4.00055168131e-09
      z: 0.0
    angular: 
      x: 0.0
      y: 0.0
      z: -1.23156449008e-11
  covariance: [0.00014773674505812932, -6.58257912763946e-27, 0.0, 0.0, 0.0, 5.193706396725315e-25, -6.3296655960858216e-27, 0.00014773674505812932, 0.0, 0.0, 0.0, -5.08559233909392e-25, 0.0, 0.0, 9.95794697738953e-07, 1.5209385778328886e-30, -7.049530948024169e-31, 0.0, 0.0, 0.0, 1.520938577832888e-30, 9.835917959090607e-07, 3.4933870234270207e-34, 0.0, 0.0, 0.0, -7.049530948024171e-31, -3.4933870234270207e-34, 9.835917959090607e-07, 0.0, 5.19370639672531e-25, -5.085592339093921e-25, 0.0, 0.0, 0.0, 0.00011789898736532294]
---
header: 
  seq: 26
  stamp: 
    secs: 1509917899
    nsecs: 537696362
  frame_id: amiro1/odom
child_frame_id: amiro1/base_link
pose: 
  pose: 
    position: 
      x: -0.00970302133383
      y: -0.0311669865823
      z: 0.0
    orientation: 
      x: 0.0
      y: 0.0
      z: -0.0227773977638
      w: 0.999740561421
  covariance: [0.01516732980724701, -5.485735715013939e-18, 0.0, 0.0, 0.0, -6.08378839280694e-11, -5.4857565500696166e-18, 0.015167329807247002, 0.0, 0.0, 0.0, 4.444569366279905e-11, 0.0, 0.0, 9.997374594594332e-07, 2.2197359306335444e-22, -4.401033156258251e-22, 0.0, 0.0, 0.0, 2.2197359306335434e-22, 9.994751938680085e-07, -7.095236881789295e-33, 0.0, 0.0, 0.0, -4.401033156258251e-22, 7.839489375068918e-33, 9.994751938680085e-07, 0.0, -6.08378839280694e-11, 4.4445693662799023e-11, 0.0, 0.0, 0.0, 0.004328713284036646]
twist: 
  twist: 
    linear: 
      x: 7.83310908548e-08
      y: 2.07100244517e-07
      z: 0.0
    angular: 
      x: 0.0
      y: 0.0
      z: 3.77772066423e-07
  covariance: [0.0017840979182150425, -1.4638375941170897e-24, 0.0, 0.0, 0.0, -8.404893154373179e-18, -1.378987270811466e-24, 0.0017840979182150425, 0.0, 0.0, 0.0, 5.4041075249034026e-18, 0.0, 0.0, 9.996062923937974e-07, 5.815880035207158e-31, -1.032169607375203e-30, 0.0, 0.0, 0.0, 5.8158800352071585e-31, 9.984288405774283e-07, -6.097911516127972e-36, 0.0, 0.0, 0.0, -1.0321696073752032e-30, 6.097911516127972e-36, 9.984288405774283e-07, 0.0, -8.404893154373178e-18, 5.4041075249033995e-18, 0.0, 0.0, 0.0, 0.0013868739326579067]
---
header: 
  seq: 27
  stamp: 
    secs: 1509917899
    nsecs: 594393253
  frame_id: amiro1/odom
child_frame_id: amiro1/base_link
pose: 
  pose: 
    position: 
      x: -0.00948923360251
      y: -0.0307871628899
      z: 0.0
    orientation: 
      x: 0.0
      y: 0.0
      z: -0.0218567266257
      w: 0.999761113217
  covariance: [0.015597422543167296, -1.1980888290689571e-17, 0.0, 0.0, 0.0, -2.3268876452527523e-10, -1.1980843505389907e-17, 0.01559742254316728, 0.0, 0.0, 0.0, 1.3431358306775372e-10, 0.0, 0.0, 9.993288414514868e-07, 4.407170602444694e-20, -2.2165888345330932e-20, 0.0, 0.0, 0.0, 4.407170602444695e-20, 9.986594814434175e-07, 1.4466320123702663e-30, 0.0, 0.0, 0.0, -2.2165888345330917e-20, 1.4529756180830524e-30, 9.986594814434175e-07, 0.0, -2.3268876452527516e-10, 1.3431358306775365e-10, 0.0, 0.0, 0.0, 0.0053321184285306045]
twist: 
  twist: 
    linear: 
      x: 3.0822252959e-13
      y: 6.08884475703e-13
      z: 0.0
    angular: 
      x: 0.0
      y: 0.0
      z: 5.82314340146e-12
  covariance: [9.999996988062692e-10, -1.075216224080988e-36, 0.0, 0.0, 0.0, -2.9717158659976695e-29, -9.722195747300716e-37, 9.999996988062692e-10, 0.0, 0.0, 0.0, 1.8374610939070656e-29, 0.0, 0.0, 9.989939371697035e-07, 1.1062624398081144e-28, -4.970736187966876e-29, 0.0, 0.0, 0.0, 1.106262439808114e-28, 9.959998456404535e-07, 1.0559061234662152e-34, 0.0, 0.0, 0.0, -4.970736187966875e-29, 2.5182413907716386e-35, 9.959998456404535e-07, 0.0, -2.971715865997668e-29, 1.8374610939070644e-29, 0.0, 0.0, 0.0, 9.99999603279778e-10]
---
header: 
  seq: 28
  stamp: 
    secs: 1509917899
    nsecs: 639848948
  frame_id: amiro1/odom
child_frame_id: amiro1/base_link
pose: 
  pose: 
    position: 
      x: -0.00929575122014
      y: -0.0304435218151
      z: 0.0
    orientation: 
      x: 0.0
      y: 0.0
      z: -0.0211986606926
      w: 0.999775283144
  covariance: [0.015161007972613386, -7.826435819605201e-18, 0.0, 0.0, 0.0, -1.1617041144961318e-10, -7.826405085643266e-18, 0.015161007972613378, 0.0, 0.0, 0.0, 6.833117309074607e-11, 0.0, 0.0, 9.996336114648925e-07, 7.574034976192973e-22, -5.272299689287879e-22, 0.0, 0.0, 0.0, 7.574034976192977e-22, 9.99267759507683e-07, 2.620129888208846e-33, 0.0, 0.0, 0.0, -5.272299689287883e-22, -4.387885312749435e-34, 9.99267759507683e-07, 0.0, -1.1617041144961313e-10, 6.833117309074604e-11, 0.0, 0.0, 0.0, 0.004462735899793563]
twist: 
  twist: 
    linear: 
      x: 1.1614008227e-07
      y: 1.82764690277e-07
      z: 0.0
    angular: 
      x: 0.0
      y: 0.0
      z: 1.84355288299e-11
  covariance: [0.0011594310954392074, -5.253722866529082e-25, 0.0, 0.0, 0.0, -3.466449041074459e-23, -5.003440865626507e-25, 0.0011594310954392074, 0.0, 0.0, 0.0, 2.036850339436219e-23, 0.0, 0.0, 9.994506185213305e-07, 1.923478495690219e-30, -1.2176652097532006e-30, 0.0, 0.0, 0.0, 1.92347849569022e-30, 9.978096735084536e-07, -2.631934983623583e-35, 0.0, 0.0, 0.0, -1.217665209753201e-30, 2.6319977222837447e-35, 9.978096735084534e-07, 0.0, -3.4664490410744545e-23, 2.0368503394362172e-23, 0.0, 0.0, 0.0, 0.0009091148839717709]
---
header: 
  seq: 29
  stamp: 
    secs: 1509917899
    nsecs: 692603588
  frame_id: amiro1/odom
child_frame_id: amiro1/base_link
pose: 
  pose: 
    position: 
      x: -0.00936534527169
      y: -0.0303835808698
      z: 0.0
    orientation: 
      x: 0.0
      y: 0.0
      z: -0.0217726879299
      w: 0.999762946933
  covariance: [0.015112145895038058, -6.87213661603121e-18, 0.0, 0.0, 0.0, -8.776161843957673e-11, -6.872164630946594e-18, 0.015112145895038051, 0.0, 0.0, 0.0, 5.507366250863299e-11, 0.0, 0.0, 9.99684271762688e-07, 3.033549818128311e-21, -1.927708549396763e-21, 0.0, 0.0, 0.0, 3.033549818128311e-21, 9.993689423422078e-07, 7.504402955423516e-33, 0.0, 0.0, 0.0, -1.9277085493967643e-21, 8.981435117118737e-33, 9.993689423422078e-07, 0.0, -8.776161843957671e-11, 5.507366250863297e-11, 0.0, 0.0, 0.0, 0.00432802541828779]
twist: 
  twist: 
    linear: 
      x: -3.07846897389e-08
      y: 6.17275074817e-07
      z: 0.0
    angular: 
      x: 0.0
      y: 0.0
      z: -7.21748609418e-06
  covariance: [0.0025640251397708305, -9.230731449397235e-24, 0.0, 0.0, 0.0, -3.319462082359811e-16, -7.873036376336539e-24, 0.0025640251397708305, 0.0, 0.0, 0.0, 1.8870376502796877e-16, 0.0, 0.0, 9.995265572611077e-07, 7.717231009599335e-30, -4.4564871263285664e-30, 0.0, 0.0, 0.0, 7.717231009599336e-30, 9.981115835579046e-07, -7.532813746061712e-36, 0.0, 0.0, 0.0, -4.4564871263285664e-30, 2.3801655563679698e-35, 9.981115835579044e-07, 0.0, -3.319462082359809e-16, 1.8870376502796862e-16, 0.0, 0.0, 0.0, 0.0019640772305848362]
---
header: 
  seq: 30
  stamp: 
    secs: 1509917899
    nsecs: 726079464
  frame_id: amiro1/odom
child_frame_id: amiro1/base_link
pose: 
  pose: 
    position: 
      x: -0.00952580556305
      y: -0.0304373498514
      z: 0.0
    orientation: 
      x: 0.0
      y: 0.0
      z: -0.0220644691137
      w: 0.999756549967
  covariance: [0.014373062690629691, -5.390972664475206e-18, 0.0, 0.0, 0.0, -8.485747422473826e-11, -5.390958532568834e-18, 0.014373062690629684, 0.0, 0.0, 0.0, 3.0579319909184107e-11, 0.0, 0.0, 9.97983862576606e-07, 1.1009904919418881e-21, -5.883318115592444e-22, 0.0, 0.0, 0.0, 1.1009904919418885e-21, 9.959839037020487e-07, -2.4773778542449874e-33, 0.0, 0.0, 0.0, -5.883318115592445e-22, 3.1191037302458906e-33, 9.959839037020487e-07, 0.0, -8.485747422473826e-11, 3.057931990918408e-11, 0.0, 0.0, 0.0, 0.0038788558150211266]
twist: 
  twist: 
    linear: 
      x: 1.29982881568e-08
      y: 3.12728146246e-08
      z: 0.0
    angular: 
      x: 0.0
      y: 0.0
      z: -6.54660013391e-12
  covariance: [0.0002066309693703012, -1.9178298977466636e-26, 0.0, 0.0, 0.0, -6.039004759966758e-24, -1.8434167891799787e-26, 0.0002066309693703012, 0.0, 0.0, 0.0, 3.4292020963197014e-24, 0.0, 0.0, 9.969818740122827e-07, 2.709256319971074e-30, -1.2980459075000888e-30, 0.0, 0.0, 0.0, 2.709256319971073e-30, 9.881417052749809e-07, 1.0890803621958859e-34, 0.0, 0.0, 0.0, -1.2980459075000884e-30, -1.0894001404933454e-34, 9.88141705274981e-07, 0.0, -6.039004759966752e-24, 3.4292020963196985e-24, 0.0, 0.0, 0.0, 0.00016466717584188003]
---
header: 
  seq: 31
  stamp: 
    secs: 1509917899
    nsecs: 796020031
  frame_id: amiro1/odom
child_frame_id: amiro1/base_link
pose: 
  pose: 
    position: 
      x: -0.00956080872087
      y: -0.0303782050519
      z: 0.0
    orientation: 
      x: 0.0
      y: 0.0
      z: -0.0222702059875
      w: 0.999751988208
  covariance: [0.015161862967562846, -4.354326256626803e-18, 0.0, 0.0, 0.0, -6.031768559196223e-11, -4.354317921530363e-18, 0.015161862967562837, 0.0, 0.0, 0.0, 2.3950199124421332e-11, 0.0, 0.0, 9.997618161170074e-07, 1.2964070706518177e-21, -5.388563525302293e-22, 0.0, 0.0, 0.0, 1.2964070706518187e-21, 9.995238589112769e-07, 1.3298990602858474e-32, 0.0, 0.0, 0.0, -5.388563525302293e-22, 1.0096332734156136e-32, 9.995238589112769e-07, 0.0, -6.031768559196223e-11, 2.3950199124421322e-11, 0.0, 0.0, 0.0, 0.0044678317897411425]
twist: 
  twist: 
    linear: 
      x: 7.87845818689e-08
      y: 3.65267615771e-07
      z: 0.0
    angular: 
      x: 0.0
      y: 0.0
      z: -5.86934129511e-07
  covariance: [0.0020266197356042185, -2.623680103319829e-24, 0.0, 0.0, 0.0, -2.134441750121349e-17, -2.5073788183077658e-24, 0.0020266197356042185, 0.0, 0.0, 0.0, 8.123678325443406e-18, 0.0, 0.0, 9.996428092422405e-07, 3.2060727734220874e-30, -1.1695384245870799e-30, 0.0, 0.0, 0.0, 3.206072773422087e-30, 9.985742674282018e-07, -4.5302610328399676e-36, 0.0, 0.0, 0.0, -1.1695384245870793e-30, 2.017600695750962e-35, 9.985742674282018e-07, 0.0, -2.134441750121348e-17, 8.1236783254434e-18, 0.0, 0.0, 0.0, 0.0015634711783114967]
---
header: 
  seq: 32
  stamp: 
    secs: 1509917899
    nsecs: 842899799
  frame_id: amiro1/odom
child_frame_id: amiro1/base_link
pose: 
  pose: 
    position: 
      x: -0.00936861553988
      y: -0.0301132498723
      z: 0.0
    orientation: 
      x: 0.0
      y: 0.0
      z: -0.0215442697145
      w: 0.999767895285
  covariance: [0.015132050003221993, -7.65465582126572e-18, 0.0, 0.0, 0.0, -1.826260542782695e-10, -7.65467554754676e-18, 0.015132050003221983, 0.0, 0.0, 0.0, 9.42498500068354e-11, 0.0, 0.0, 9.990354301922535e-07, 6.00411595193293e-20, -3.283253443542189e-20, 0.0, 0.0, 0.0, 6.004115951932927e-20, 9.980745722216909e-07, 2.0421895526833037e-30, 0.0, 0.0, 0.0, -3.283253443542189e-20, 2.0452355467012654e-30, 9.980745722216909e-07, 0.0, -1.8262605427826956e-10, 9.424985000683536e-11, 0.0, 0.0, 0.0, 0.004879812593822984]
twist: 
  twist: 
    linear: 
      x: 3.16420453267e-13
      y: 5.81672232759e-13
      z: 0.0
    angular: 
      x: 0.0
      y: 0.0
      z: 4.66427182047e-12
  covariance: [9.999996981541299e-10, -1.2568591873795144e-36, 0.0, 0.0, 0.0, -4.5055937342037685e-29, -1.2401016554572166e-36, 9.999996981541299e-10, 0.0, 0.0, 0.0, 1.5149532451632081e-29, 0.0, 0.0, 9.985545387624447e-07, 1.5018583290338771e-28, -7.390906702298896e-29, 0.0, 0.0, 0.0, 1.5018583290338771e-28, 9.942677628312727e-07, -1.4128177307350286e-34, 0.0, 0.0, 0.0, -7.390906702298893e-29, 1.4128177307927569e-34, 9.942677628312727e-07, 0.0, -4.5055937342037696e-29, 1.5149532451632076e-29, 0.0, 0.0, 0.0, 9.999996001434024e-10]
---
header: 
  seq: 33
  stamp: 
    secs: 1509917899
    nsecs: 863202572
  frame_id: amiro1/odom
child_frame_id: amiro1/base_link
pose: 
  pose: 
    position: 
      x: -0.00988844421775
      y: -0.0316250789853
      z: 0.0
    orientation: 
      x: 0.0
      y: 0.0
      z: -0.0249380725853
      w: 0.999688997907
  covariance: [0.013902368863001429, -4.976047046477901e-18, 0.0, 0.0, 0.0, -1.0028904155938689e-10, -4.976061300346043e-18, 0.013902368863001422, 0.0, 0.0, 0.0, 5.1637882509362144e-11, 0.0, 0.0, 9.991804392470871e-07, 1.3668181218334207e-21, -5.7242957054054415e-22, 0.0, 0.0, 0.0, 1.3668181218334207e-21, 9.983635574938976e-07, -1.4707409159296198e-32, 0.0, 0.0, 0.0, -5.7242957054054415e-22, 1.6627696730799487e-32, 9.983635574938976e-07, 0.0, -1.0028904155938694e-10, 5.163788250936212e-11, 0.0, 0.0, 0.0, 0.0037880400806090354]
twist: 
  twist: 
    linear: 
      x: 6.15866811297e-09
      y: -2.11351945112e-08
      z: 0.0
    angular: 
      x: 0.0
      y: 0.0
      z: -4.89347840897e-11
  covariance: [0.0005126468376051548, -1.389858943244203e-25, 0.0, 0.0, 0.0, -1.541229577595905e-23, -1.3609659479174892e-25, 0.0005126468376051548, 0.0, 0.0, 0.0, 5.433525710235e-24, 0.0, 0.0, 9.987716645581096e-07, 3.391572457994238e-30, -1.2517870950593284e-30, 0.0, 0.0, 0.0, 3.3915724579942364e-30, 9.951224744784445e-07, -4.968380943983341e-35, 0.0, 0.0, 0.0, -1.2517870950593282e-30, 4.968380943983191e-35, 9.951224744784445e-07, 0.0, -1.5412295775959043e-23, 5.4335257102349955e-24, 0.0, 0.0, 0.0, 0.00040605645043905315]
---
header: 
  seq: 34
  stamp: 
    secs: 1509917899
    nsecs: 924015760
  frame_id: amiro1/odom
child_frame_id: amiro1/base_link
pose: 
  pose: 
    position: 
      x: -0.0100647147176
      y: -0.0316026983894
      z: 0.0
    orientation: 
      x: 0.0
      y: 0.0
      z: -0.0234809138013
      w: 0.999724285334
  covariance: [0.014489979511361254, -3.3640863668347288e-18, 0.0, 0.0, 0.0, -4.313579922997503e-11, -3.364082737846009e-18, 0.014489979511361254, 0.0, 0.0, 0.0, 2.675923854960986e-11, 0.0, 0.0, 9.99726086996917e-07, -4.805994395720004e-22, -1.400805790644442e-22, 0.0, 0.0, 0.0, -4.805994395720006e-22, 9.994524741226486e-07, 7.087502128960884e-33, 0.0, 0.0, 0.0, -1.400805790644442e-22, -7.579070356587748e-33, 9.994524741226486e-07, 0.0, -4.313579922997506e-11, 2.6759238549609844e-11, 0.0, 0.0, 0.0, 0.004265506945790522]
twist: 
  twist: 
    linear: 
      x: -3.76639728194e-07
      y: -5.34224062972e-08
      z: 0.0
    angular: 
      x: 0.0
      y: 0.0
      z: 9.67767685623e-06
  covariance: [0.002109672269701844, -3.7582408536223515e-24, 0.0, 0.0, 0.0, -5.752149462979514e-17, -3.916870900169776e-24, 0.002109672269701844, 0.0, 0.0, 0.0, 2.96883358539424e-17, 0.0, 0.0, 9.995892430974026e-07, -1.166954103268308e-30, -4.0431954387598985e-31, 0.0, 0.0, 0.0, -1.1669541032683075e-30, 9.983609969888735e-07, 4.029712828921012e-35, 0.0, 0.0, 0.0, -4.043195438759894e-31, -4.029712828920733e-35, 9.983609969888735e-07, 0.0, -5.752149462979517e-17, 2.968833585394238e-17, 0.0, 0.0, 0.0, 0.0016222852540060868]
---
header: 
  seq: 35
  stamp: 
    secs: 1509917899
    nsecs: 976731300
  frame_id: amiro1/odom
child_frame_id: amiro1/base_link
pose: 
  pose: 
    position: 
      x: -0.010121550727
      y: -0.0314749907565
      z: 0.0
    orientation: 
      x: 0.0
      y: 0.0
      z: -0.0230733893805
      w: 0.999733773913
  covariance: [0.014623075838725002, -2.05772382321434e-18, 0.0, 0.0, 0.0, -1.588096335818186e-11, -2.057735349335227e-18, 0.014623075838725002, 0.0, 0.0, 0.0, -2.3025477119244134e-11, 0.0, 0.0, 9.98142590647747e-07, -2.518335829123065e-22, 1.295156469302901e-22, 0.0, 0.0, 0.0, -2.5183358291230656e-22, 9.962989228250787e-07, -7.172584410073401e-33, 0.0, 0.0, 0.0, 1.2951564693029016e-22, 7.207943280146135e-33, 9.962989228250787e-07, 0.0, -1.5880963358181866e-11, -2.302547711924414e-11, 0.0, 0.0, 0.0, 0.004262726937747837]
twist: 
  twist: 
    linear: 
      x: -6.61950834853e-09
      y: -3.40757470245e-09
      z: 0.0
    angular: 
      x: 0.0
      y: 0.0
      z: 8.59672094703e-12
  covariance: [0.00022451804827691913, -2.789544180845874e-26, 0.0, 0.0, 0.0, -4.0077546137300695e-24, -2.74537865574907e-26, 0.00022451804827691913, 0.0, 0.0, 0.0, 1.4931863385150867e-24, 0.0, 0.0, 9.972190490823286e-07, -6.235047444835798e-31, 2.8513900737622903e-31, 0.0, 0.0, 0.0, -6.235047444835801e-31, 9.890585011039255e-07, -3.263167797727132e-34, 0.0, 0.0, 0.0, 2.85139007376229e-31, 3.263167797727132e-34, 9.890585011039255e-07, 0.0, -4.007754613730071e-24, 1.493186338515086e-24, 0.0, 0.0, 0.0, 0.00017879586083944328]
---
header: 
  seq: 36
  stamp: 
    secs: 1509917900
    nsecs:  19078493
  frame_id: amiro1/odom
child_frame_id: amiro1/base_link
pose: 
  pose: 
    position: 
      x: -0.0101481715955
      y: -0.0313602926799
      z: 0.0
    orientation: 
      x: 0.0
      y: 0.0
      z: -0.02157869534
      w: 0.999767152845
  covariance: [0.014340304375150398, -1.523977710694715e-18, 0.0, 0.0, 0.0, -7.134937251684028e-12, -1.5239843871521693e-18, 0.014340304375150398, 0.0, 0.0, 0.0, -1.3835808063573226e-11, 0.0, 0.0, 9.996067376067273e-07, -1.49684593075121e-22, 2.9074623878437793e-22, 0.0, 0.0, 0.0, -1.49684593075121e-22, 9.99214092176942e-07, 6.869024748917053e-33, 0.0, 0.0, 0.0, 2.9074623878437793e-22, -6.647702672544233e-33, 9.99214092176942e-07, 0.0, -7.134937251684032e-12, -1.3835808063573229e-11, 0.0, 0.0, 0.0, 0.004048993141331472]
twist: 
  twist: 
    linear: 
      x: -6.37231190776e-08
      y: 7.20140807472e-08
      z: 0.0
    angular: 
      x: 0.0
      y: 0.0
      z: 3.32750439744e-06
  covariance: [0.0013160181397103966, -1.1507085279694263e-24, 0.0, 0.0, 0.0, -2.302664303106373e-18, -1.1500871203296979e-24, 0.0013160181397103966, 0.0, 0.0, 0.0, -1.217697739115635e-18, 0.0, 0.0, 9.994103379687427e-07, -3.953718275171065e-31, 6.880023848303993e-31, 0.0, 0.0, 0.0, -3.953718275171064e-31, 9.97649608223062e-07, -3.593940574899549e-35, 0.0, 0.0, 0.0, 6.880023848303991e-31, 3.5939405748997444e-35, 9.976496082230623e-07, 0.0, -2.3026643031063736e-18, -1.2176977391156354e-18, 0.0, 0.0, 0.0, 0.0010257363045301888]
---
header: 
  seq: 37
  stamp: 
    secs: 1509917900
    nsecs:  97670317
  frame_id: amiro1/odom
child_frame_id: amiro1/base_link
pose: 
  pose: 
    position: 
      x: -0.0101957169631
      y: -0.0312766800814
      z: 0.0
    orientation: 
      x: 0.0
      y: 0.0
      z: -0.0205523132007
      w: 0.999788778904
  covariance: [0.015451265812301888, -9.26366889329234e-19, 0.0, 0.0, 0.0, -1.4161220888736782e-11, -9.263464646234492e-19, 0.015451265812301888, 0.0, 0.0, 0.0, -1.8710460484568794e-11, 0.0, 0.0, 9.968496751338568e-07, 3.097439402539445e-23, 2.25430826773934e-22, 0.0, 0.0, 0.0, 3.097439402539445e-23, 9.937387870695555e-07, 1.3481509610710651e-33, 0.0, 0.0, 0.0, 2.254308267739339e-22, -1.3511602266091702e-33, 9.937387870695555e-07, 0.0, -1.4161220888736782e-11, -1.8710460484568794e-11, 0.0, 0.0, 0.0, 0.004671818513452087]
twist: 
  twist: 
    linear: 
      x: -5.71377486319e-09
      y: 2.76392579436e-09
      z: 0.0
    angular: 
      x: 0.0
      y: 0.0
      z: 1.0056095069e-11
  covariance: [0.00013179528688713154, -9.77708275487271e-27, 0.0, 0.0, 0.0, -7.373662271788278e-25, -9.583877401736912e-27, 0.00013179528688713154, 0.0, 0.0, 0.0, -3.650014278559729e-25, 0.0, 0.0, 9.952893487673444e-07, 5.070591618176077e-32, 5.391829068115905e-31, 0.0, 0.0, 0.0, 5.070591618176077e-32, 9.816748916697838e-07, -1.8113234621947042e-34, 0.0, 0.0, 0.0, 5.3918290681159015e-31, 1.8114125839577135e-34, 9.816748916697836e-07, 0.0, -7.373662271788279e-25, -3.6500142785597273e-25, 0.0, 0.0, 0.0, 0.00010514359338338777]
---
header: 
  seq: 38
  stamp: 
    secs: 1509917900
    nsecs: 144323826
  frame_id: amiro1/odom
child_frame_id: amiro1/base_link
pose: 
  pose: 
    position: 
      x: -0.0102345676609
      y: -0.0311940042567
      z: 0.0
    orientation: 
      x: 0.0
      y: 0.0
      z: -0.0213958859368
      w: 0.999771081831
  covariance: [0.015099156247830703, -6.578583150659174e-19, 0.0, 0.0, 0.0, -8.607023636372783e-12, -6.57848775154498e-19, 0.015099156247830703, 0.0, 0.0, 0.0, -1.2314435589158954e-11, 0.0, 0.0, 9.996430113574106e-07, 1.7744280630644525e-22, 3.6683656230935595e-22, 0.0, 0.0, 0.0, 1.7744280630644525e-22, 9.992865302633332e-07, -7.215442934104382e-33, 0.0, 0.0, 0.0, 3.66836562309356e-22, -1.2786369271408383e-32, 9.992865302633332e-07, 0.0, -8.607023636372783e-12, -1.2314435589158955e-11, 0.0, 0.0, 0.0, 0.004276313675161268]
twist: 
  twist: 
    linear: 
      x: -8.28649864394e-08
      y: 7.78688034126e-08
      z: 0.0
    angular: 
      x: 0.0
      y: 0.0
      z: -1.10794782182e-06
  covariance: [0.0013335701778193956, -1.1034484043061962e-24, 0.0, 0.0, 0.0, -9.621959411310275e-19, -1.063472948508812e-24, 0.0013335701778193956, 0.0, 0.0, 0.0, -9.843241139359496e-19, 0.0, 0.0, 9.994647075822967e-07, 3.8728478228999834e-31, 8.923773026569343e-31, 0.0, 0.0, 0.0, 3.8728478228999825e-31, 9.978656046589132e-07, -2.0382753417371155e-36, 0.0, 0.0, 0.0, 8.923773026569345e-31, -6.02359313744236e-35, 9.978656046589132e-07, 0.0, -9.621959411310273e-19, -9.843241139359498e-19, 0.0, 0.0, 0.0, 0.0010382123989310802]
---
header: 
  seq: 39
  stamp: 
    secs: 1509917900
    nsecs: 177652359
  frame_id: amiro1/odom
child_frame_id: amiro1/base_link
pose: 
  pose: 
    position: 
      x: -0.0104614751249
      y: -0.0313335096547
      z: 0.0
    orientation: 
      x: 0.0
      y: 0.0
      z: -0.0214444753908
      w: 0.999770040797
